No.,지역,매장명,주소,우편번호,전화,영업시간,24시간,배달,픽업,드라이브스루,주차,WiFi,매장코드,상태,Latitude,Longitude
1,서울,가산디지털단지,"서울 금천구 벚꽃로 36길 30 1층 120, 121호",08511,02-2025-1024,08:00~22:00,N,Y,Y,N,N,N,13174,OPEN,37.4806895,126.885078
2,서울,가산IT,서울 금천구 가산동 345-30 1층 101호,08589,02-855-6750,09:00~22:00,N,Y,Y,N,N,N,13287,OPEN,37.4754603,126.881751
3,서울,가좌역,서울 서대문구 남가좌동 269-1 103호,03712,02-303-9777,09:00~24:00,N,Y,Y,N,N,N,13144,OPEN,37.5708138,126.913701
4,서울,강남역SELECT,서울 서초구 서초대로78길 28 1층,06621,02-3472-4997,10:00~22:00,N,Y,Y,N,N,Y,13331,OPEN,37.4952769,127.027855
5,서울,강남일원,서울 강남구 양재대로55길 21,06342,02-451-2211,10:00~24:00,N,Y,Y,N,N,Y,12864,OPEN,37.492277,127.08721
6,서울,강동구청D/T,서울 강동구 성내동 319-1,134030,02-483-1241,10:00~22:00,N,Y,Y,N,Y,Y,12410,OPEN,37.530961,127.121134
7,서울,강변씨네마,서울 광진구 광나루로 56길 85,143721,02-3424-1274,10:00~20:30,N,Y,Y,N,Y,N,11128,OPEN,37.535675,127.095853
8,서울,강서구청,서울 강서구 화곡로 330 1층 102호,07653,02-3663-4301,24시간,Y,Y,Y,N,Y,N,13093,OPEN,37.5532536,126.851184
9,서울,강일,서울 강동구 아리수로93길 33-9,134100,02-427-0707,10:00~22:30,N,Y,Y,N,Y,Y,12108,OPEN,37.565688,127.17318
10,서울,개봉,서울 구로구 고척동 구로구 고척동 52-197,152080,02-2685-2226,09:00~23:00,N,Y,Y,N,Y,Y,12395,OPEN,37.500602,126.866598
11,서울,개봉역,서울 구로 경인로 40길 47 1F,152090,02-2615-7275,09:00~23:00,N,Y,Y,N,N,N,11155,OPEN,37.494435,126.85912
12,서울,건대스타시티,서울 광진구 아차산로272,143730,02-2024-1466,09:00~22:00,N,Y,Y,N,Y,Y,11033,OPEN,37.537811,127.072553
13,서울,건대입구역,서울 광진구 화양동 48-17 1층,05019,02-6014-4550,24시간,Y,Y,Y,N,N,N,13185,OPEN,37.5412123,127.06744
14,서울,고덕역,서울 강동구 동남로73길 26 02호,134825,02-426-9900,09:00~22:30,N,Y,Y,N,Y,Y,11197,OPEN,37.5532318,127.154501
15,서울,공릉역,서울 노원구 동일로 192길 27,139801,02-977-2430,10:00~22:00,N,Y,Y,N,N,N,11964,OPEN,37.6263991104947,127.07435278165
16,서울,구로디지털역,서울 관악구 시흥대로 578,08700,02-857-7698,24시간,Y,Y,Y,N,Y,Y,11007,OPEN,37.484217,126.903301
17,서울,구로시장,서울 구로구 도림로 73,08312,02-3281-1154,24시간,Y,Y,Y,N,N,Y,11010,OPEN,37.490021,126.891605
18,서울,구로IT,서울 구로구 구로동 디지털로31길 20,152766,02-2109-6750,08:00~01:30,N,Y,Y,N,Y,Y,12203,OPEN,37.485469,126.894338
19,서울,구산역,서울 은평구 연서로 130,03398,02-387-6094,07:00~24:00,N,Y,Y,N,Y,Y,12975,OPEN,37.6102615,126.917154
20,서울,구의역,서울 광진구 아차산로 370,143851,02-453-1353,24시간,Y,Y,Y,N,N,N,12366,OPEN,37.536415,127.084042
21,서울,구파발역,서울 은평구 진관2로 15-40,122200,02-384-4500,09:00~24:00,N,Y,Y,N,Y,Y,12087,OPEN,37.638082,126.919141
22,서울,금호,서울 성동구 장터길 23,04724,02-2296-2872,10:00~23:00,N,Y,Y,N,Y,Y,11127,OPEN,37.548497,127.018274
23,서울,길동,서울 강동구 천호대로 1124,05373,02-475-6084,24시간,Y,Y,Y,N,N,Y,11005,OPEN,37.534308,127.136176
24,서울,길음뉴타운점,서울 성북구 길음로7길 6,136110,02-911-7979,08:00~24:00,N,Y,Y,N,Y,Y,12020,OPEN,37.604332,127.022456
25,서울,김포국제공항국내선청사4층,서울 강서구 하늘길 112,07505,02-2666-9439,05:00~20:30,N,N,Y,N,Y,Y,12854,OPEN,37.5566873,126.808431
26,서울,까치산역,서울 강서구 강서로35(화곡동),157881,02-2692-0042,24시간,Y,Y,Y,N,N,N,11147,OPEN,37.5310025,126.846851
27,서울,남부터미널,서울 서초구 효령로 289 장곡빌딩 103호,137953,02-523-1800,09:00~22:00,N,Y,Y,N,N,N,11150,OPEN,37.485092,127.015839
28,서울,남성역,서울 동작구 사당로 200,07009,02-588-0992,08:30~22:00,N,Y,Y,N,Y,Y,12701,OPEN,37.484845,126.970402
29,서울,노량진,서울 동작구 장승배기로 171,06928,02-821-0308,24시간,Y,Y,Y,N,N,Y,11035,OPEN,37.513196,126.939939
30,서울,노원역,서울 노원구 상계로 64,01695,02-932-1756,24시간,Y,Y,Y,N,Y,Y,11129,OPEN,37.655685,127.062316
31,서울,녹번,서울 은평구 은평로 206,122906,02-388-7973,09:00~22:00,N,Y,Y,N,Y,Y,12379,OPEN,37.60104,126.930585
32,서울,답십리,서울 성동구 천호대로 308,04804,02-2249-7619,24시간,Y,Y,Y,N,Y,Y,12334,OPEN,37.56518,127.054219
33,서울,답십리사거리,서울 동대문구 답십리동 246-23 1층,02599,02-3394-5672,09:00~22:00,N,Y,Y,N,N,N,13295,OPEN,37.572615,127.056594
34,서울,대림역,서울 영등포구 도림로 148,150814,02-835-2220,09:00~22:00,N,Y,Y,N,Y,Y,11172,OPEN,37.493535,126.898279
35,서울,대방역,"서울 영등포구 영등포로 416 신길동 1,2층",150855,02-849-7688,09:00~23:00,N,Y,Y,N,N,N,12171,OPEN,37.512587,126.924142
36,서울,대흥역,서울 마포구 대흥로 79 (대흥동 동양엔파트),121811,02-3275-2712,09:00~22:00,N,Y,Y,N,N,Y,12237,OPEN,37.547172,126.941035
37,서울,덕성여대,서울 강북구 수유동 279-84,142070,02-900-9006,10:00~22:00,N,Y,Y,N,N,Y,12411,OPEN,37.648461,127.013902
38,서울,동대문광장,서울 종로구 종로 286,110540,02-742-5747,08:00~22:00,N,Y,Y,N,N,Y,11187,OPEN,37.57092,127.010373
39,서울,동대문역사문화공원역,서울 중구 을지로 251,100851,02-2265-0374,24시간,Y,Y,Y,N,N,Y,11038,OPEN,37.5665215,127.00634
40,서울,동묘역,서울 종로구 종로 336,110841,02-764-5333,24시간,Y,Y,Y,N,N,Y,12216,OPEN,37.572585,127.014994
41,서울,등촌역,서울 강서구 공항대로 553 1층 103호(염창동),07560,02-3662-1333,09:00~23:00,N,Y,Y,N,N,Y,13312,OPEN,37.5499754,126.867351
42,서울,뚝섬유원지,서울 광진구 능동로7,143845,02-498-5588,10:00~21:30,N,Y,Y,N,N,N,12152,OPEN,37.532318,127.066755
43,서울,롯데마트맥스영등포,서울 영등포구 영중로 125 롯데마트 영등포점,07228,02-2165-2500,10:00~21:00,N,Y,Y,N,Y,N,13326,OPEN,37.5277933,126.904644
44,서울,롯데마트서울양평,"서울 영등포구 선유로 138 1층 (양평동3가, 롯데마트 양평점)",07255,02-2069-3690,10:00~21:00,N,Y,Y,N,N,Y,13163,OPEN,37.526034,126.891626
45,서울,롯데마트송파,서울 송파구 중대로 80,138885,02-409-4447,10:00~22:00,N,Y,Y,N,N,Y,12141,OPEN,37.49175,127.117862
46,서울,롯데마트행당역,서울 성동구 행당동 328,133070,02-2298-4200,10:00~21:00,N,Y,Y,N,Y,Y,12182,OPEN,37.556579,127.029081
47,서울,롯데백잠실광장,서울 송파구 잠실동 40-1,138220,02-2143-1846,08:00~22:00,N,N,Y,N,N,N,12404,OPEN,37.5116362,127.100803
48,서울,마곡역,서울 강서구 마곡중앙로 마곡중앙 1로 20,07630,02-2661-8040,09:00~22:00,N,Y,Y,N,Y,Y,12976,OPEN,37.559,126.824
49,서울,마천,서울 송파구 마천로 315,138820,02-407-6882,09:00~22:00,N,Y,Y,N,Y,Y,11131,OPEN,37.495184,127.150987
50,서울,망우,서울 중랑구 봉우재로 239,131809,02-493-6944,10:00~22:00,N,Y,Y,N,N,Y,12136,OPEN,37.595651,127.099406
51,서울,망원,서울 마포구 월드컵로 85,121820,02-325-8171,10:00~24:00,N,Y,Y,N,N,Y,12502,OPEN,37.556299,126.909516
52,서울,먹골역,서울 중랑구 묵동 174-29 1층,02034,02-6956-7337,09:00~22:00,N,Y,Y,N,N,N,13308,OPEN,37.6124741,127.078048
53,서울,면목중앙,서울 중랑구 면목로 415,02146,02-439-8245,24시간,Y,Y,Y,N,N,N,11013,OPEN,37.589059,127.087042
54,서울,명지대학,서울 서대문구 거북골로 31 2,120806,02-302-5959,09:00~23:00,N,Y,Y,N,N,Y,11156,OPEN,37.5796,126.924318
55,서울,목동,서울 양천구 신목로 72,158852,02-2061-5455,09:00~22:00,N,Y,Y,N,Y,Y,12253,OPEN,37.5212048,126.873827
56,서울,목동사거리,서울 양천구 등촌로 28,07965,02-2644-7800,09:00~24:00,N,Y,Y,N,N,Y,11135,OPEN,37.5325554,126.864033
57,서울,목동킴스클럽,서울 양천구 목동동로 309,07997,02-2644-3994,09:30~20:30,N,Y,Y,N,Y,N,12830,OPEN,37.529255,126.875766
58,서울,몽촌토성역,"서울 송파구 백제고분로51길 30 1,2층 101, 202호(방이동)",05544,02-2202-2999,08:00~24:00,N,Y,Y,N,N,N,13166,OPEN,37.5169597,127.112518
59,서울,문정로데오,서울 송파구 동남로 134,138200,02-448-3232,06:00~03:00,N,Y,Y,N,Y,Y,12327,OPEN,37.490962,127.125909
60,서울,미아역,서울 강북구 도봉로 182 1층,01157,02-989-6493,09:00~22:00,N,Y,Y,N,N,N,13297,OPEN,37.6249748,127.026927
61,서울,발산역,서울 강서구 강서로 56길 24,157930,02-3665-8382,09:00~01:00,N,Y,Y,N,N,Y,12103,OPEN,37.559322,126.840087
62,서울,방배역,서울 서초구 방배로 96,06665,02-588-1405,10:00~22:00,N,Y,Y,N,Y,Y,12870,OPEN,37.482985,126.996963
63,서울,방이역,서울 송파구 마천로 25,138835,02-422-1990,09:00~22:00,N,Y,Y,N,Y,Y,12428,OPEN,37.509643,127.123881
64,서울,방학,서울 도봉구 방학로 173,132932,02-955-9538,09:00~02:00,N,Y,Y,N,Y,N,12113,OPEN,37.662079,127.032906
65,서울,방화,서울 강서구 양천로 73,157849,02-2661-3388,09:00~22:30,N,Y,Y,N,Y,Y,12038,OPEN,37.573698,126.811793
66,서울,번동,서울 강북구 한천로963(번동),142864,02-998-3331,08:00~24:00,N,Y,Y,N,Y,Y,12303,OPEN,37.635573,127.033053
67,서울,보라매타운,서울 관악구 보라매로5길 35,08708,02-849-9186,09:00~22:00,N,Y,Y,N,Y,Y,12839,OPEN,37.492233,126.923352
68,서울,봉천,서울 관악구 관악로212,151725,02-885-3274,10:00~22:00,N,Y,Y,N,Y,Y,11120,OPEN,37.483666,126.955066
69,서울,봉천역,서울 관악구 봉천동 930-45,151050,02-889-1305,10:00~22:00,N,Y,Y,N,N,Y,12367,OPEN,37.482144,126.941617
70,서울,불광역,서울 은평구 통일로 712-1 1층 101호,03368,02-356-8234,06:30~22:00,N,Y,Y,N,N,N,13325,OPEN,37.60964,126.931153
71,서울,사가정역,서울 중랑구 면목로 333,131831,02-438-0811,24시간,Y,Y,Y,N,N,Y,11198,OPEN,37.581796,127.088442
72,서울,사당역,"서울 동작구 남부순환로 2055, 1층 104호(사당동)",07024,02-588-6866,09:00~02:00,N,Y,Y,N,N,N,13347,OPEN,37.4768699,126.977065
73,서울,삼양사거리,서울 강북구 솔샘로 237,01189,02-980-0706,10:00~22:00,N,Y,Y,N,N,Y,12618,OPEN,37.6201019,127.019223
74,서울,상계,서울 노원구 한글비석로 369,139856,02-930-9912,10:00~22:00,N,Y,Y,N,Y,Y,12129,OPEN,37.658384,127.073944
75,서울,상봉역,서울 중랑구 망우로 282-1,131860,02-494-2222,09:00~01:30,N,Y,Y,N,N,N,12064,OPEN,37.596382,127.084007
76,서울,상암,서울 마포구 월드컵북로 402 KGIT센터 150~152호,121913,02-6393-5535,09:00~22:00,N,Y,Y,N,N,Y,12114,OPEN,37.580135,126.888941
77,서울,상일동,서울 강동구 상일로 33,134837,02-441-3888,09:00~23:00,N,Y,Y,N,Y,Y,12420,OPEN,37.550143,127.1727
78,서울,서대문역,서울 서대문구 충정로2가 8-2,120012,02-312-9760,24시간,Y,Y,Y,N,Y,Y,12601,OPEN,37.565815,126.965993
79,서울,서울대,서울 관악구 대학동 산 56-1 서울대학교 內,151019,02-877-8444,08:00~22:00,N,N,Y,N,N,Y,12561,OPEN,37.45909758361704,126.95254153224316
80,서울,서울대입구역,서울 관악구 봉천동 863-1,151050,02-883-6816,24시간,Y,Y,Y,N,N,Y,12578,OPEN,37.480077,126.952085
81,서울,서울역사,서울 용산구 한강대로 405 109호 2층,140761,02-393-9375,04:00~00:30,N,N,Y,N,Y,N,11021,OPEN,37.5523812,126.971042
82,서울,서초중앙로,서울 서초구 서초중앙로 229 1층,06593,02-595-7497,10:00~22:00,N,Y,Y,N,Y,Y,13115,OPEN,37.502091,127.011323
83,서울,석계,서울 노원구 화랑로 325,139841,02-909-3937,10:00~23:00,N,Y,Y,N,Y,N,11122,OPEN,37.614877,127.064055
84,서울,석관,서울 성북구 돌곶이로 75,136819,02-968-1149,09:00~02:00,N,Y,Y,N,N,Y,11151,OPEN,37.610054,127.057456
85,서울,선릉,서울 강남구 테헤란로 423 1층,06159,02-565-5939,24시간,Y,Y,Y,N,N,N,13254,OPEN,37.5061527,127.052967
86,서울,성대시장,서울 동작구 상도로 102,156839,02-822-8303,09:30~23:00,N,Y,Y,N,Y,Y,11123,OPEN,37.499902,126.931722
87,서울,성수역,서울 성동구 성수이로 118 성수아카데미타워 1층,04797,02-467-7727,09:00~22:00,N,Y,Y,N,Y,Y,12084,OPEN,37.5451816,127.057803
88,서울,성신여대,서울 성북구 동소문로 117,02829,02-922-0902,24시간,Y,Y,Y,N,N,N,11023,OPEN,37.593661,127.017777
89,서울,세곡,서울 강남구 세곡동 281-4,135190,02-459-9999,10:00~22:00,N,Y,Y,N,N,N,12412,OPEN,37.465657,127.101122
90,서울,세이브마트,서울 관악구 난곡로 220,151750,02-830-2080,10:00~22:00,N,Y,Y,N,Y,Y,11134,OPEN,37.474327,126.917898
91,서울,소공2호,서울 중구 남대문로 81,100721,02-756-7858,09:30~20:30,N,Y,Y,N,Y,Y,11001,OPEN,37.564709,126.981711
92,서울,송파,서울 송파구 가락로 164,138854,02-412-8401,24시간,Y,Y,Y,N,Y,Y,12158,OPEN,37.503343,127.113638
93,서울,송파삼전,서울 송파구 백제고분로 254,138838,02-2203-6660,09:00~24:00,N,Y,Y,N,Y,Y,12198,OPEN,37.5023,127.094516
94,서울,송파하비오,서울 송파구 송파대로 111,05817,02-449-3391,08:00~02:00,N,Y,Y,N,Y,Y,12796,OPEN,37.480977,127.123635
95,서울,수락산역,서울 노원구 동일로 1668(상계동),139838,02-931-4501,09:00~23:00,N,Y,Y,N,Y,Y,12192,OPEN,37.6778,127.054919
96,서울,수서역사,서울 강남구 밤고개로 99 SRT수서역사 지하1층,06369,02-459-9424,05:00~01:00,N,N,Y,N,Y,N,12743,OPEN,37.4854049,127.104545
97,서울,수유역,서울 강북구 도봉로 323 용신빌딩 1층,01073,02-994-4293,24시간,Y,Y,Y,N,N,N,13094,OPEN,37.6372017,127.024053
98,서울,숙대입구역,서울 용산구 한강대로 283,04321,02-718-9861,24시간,Y,Y,Y,N,N,Y,11043,OPEN,37.543355,126.971966
99,서울,숭실대입구역,서울 동작구 상도로 343 롯데리아 숭실대입구역,06971,02-826-9935,09:00~02:00,N,Y,Y,N,N,Y,12255,OPEN,37.4979277,126.952575
100,서울,시흥중앙,서울 금천구 금하로 712,153859,02-808-0202,09:00~22:00,N,Y,Y,N,N,Y,11149,OPEN,37.450844,126.90883
101,서울,시흥현대시장,서울 금천구 독산로 독산로 128번길,08569,02-806-9800,10:00~23:00,N,Y,Y,N,N,N,12849,OPEN,37.459042,126.905413
102,서울,신곡시장,서울 양천구 신월로 177,158841,02-2275-7997,09:00~22:00,N,Y,Y,N,N,N,11191,OPEN,37.517709,126.841979
103,서울,신길,"서울 영등포구 가마산로 483 (신길동,신길AK푸르지오)",07387,02-834-1288,08:30~23:30,N,Y,Y,N,N,N,13346,OPEN,37.506491,126.909807
104,서울,신김포공항,서울 강서구 하늘길 김포공,07505,02-2666-6814,04:30~23:30,N,N,Y,N,Y,Y,11015,OPEN,37.558994,126.803069
105,서울,신당역,서울 중구 퇴계로428-1,100450,02-2233-2930,10:00~23:00,N,Y,Y,N,N,Y,11183,OPEN,37.565435,127.019267
106,서울,신도림역,서울 구로구 경인로661(신도림동),152748,02-2068-8101,10:00~24:00,N,Y,Y,N,N,N,11195,OPEN,37.50945,126.887755
107,서울,신림녹두,서울 관악구 신림로23길 16,08812,02-873-4002,10:00~22:00,N,Y,Y,N,Y,N,11146,OPEN,37.4704022,126.934483
108,서울,신림역,서울 관악구 남부순환로 1610,08776,02-888-0702,24시간,Y,Y,Y,N,N,Y,11039,OPEN,37.483912,126.929311
109,서울,신방화역,"서울 강서구 방화동 B2-2 마곡SB타운 117호, 118호, 208-1호",157220,02-2664-5600,09:30~22:00,N,Y,Y,N,Y,Y,12424,OPEN,37.56712,126.818565
110,서울,신정네거리역,서울 양천구 신월로 297,08027,02-2608-1712,09:00~00:00,N,Y,Y,N,N,Y,13043,OPEN,37.5214881,126.854042
111,서울,신촌역,"서울 서대문구 신촌로 119,1층 101호",03780,02-313-1108,09:00~24:00,N,Y,Y,N,N,N,13276,OPEN,37.5562068,126.938945
112,서울,쌍문역,서울 도봉구 도봉로 484,132924,02-995-6263,10:00~01:00,N,Y,Y,N,N,N,11138,OPEN,37.648628,127.035052
113,서울,아차산역,서울 광진구 천호대로 665,143817,02-453-6535,09:00~22:00,N,Y,Y,N,N,Y,11140,OPEN,37.551677,127.09028
114,서울,암사역,서울 강동구 올림픽로792,134859,02-426-4800,08:00~02:00,N,Y,Y,N,Y,Y,12078,OPEN,37.551661,127.128368
115,서울,압구정역,서울특별시 강남구 논현로175길 6 로얄빌딩,06030,02-6954-7844,09:00~22:30,N,Y,Y,N,N,N,13148,OPEN,37.5262983,127.027742
116,서울,양원역,서울특별시 중랑구 양원역로14길 19 DS프라자 1층 101호,02057,070-4353-6565,10:00~22:00,N,Y,Y,N,N,N,13120,OPEN,37.6070183,127.107544
117,서울,양재동,서울 서초구 동산로 22,06785,02-577-4618,10:00~22:00,N,Y,Y,N,N,N,12724,OPEN,37.46982,127.041944
118,서울,양재역,서울특별시 서초구 강남대로 206 1층,06743,02-2058-2689,24시간,Y,Y,Y,N,N,N,13267,OPEN,37.4826336,127.036523
119,서울,연신내역,서울 은평구 연서로 227,122809,02-388-2497,24시간,Y,Y,Y,N,N,Y,11132,OPEN,37.618766,126.920015
120,서울,영등포역사,서울 영등포구 경인로 846,07306,02-2632-4157,24시간,Y,Y,Y,N,Y,N,12731,OPEN,37.515354,126.905727
121,서울,영등포타임스퀘어B2,서울 영등포구 영중로 15(영등포동 4가)B2층,150798,02-2677-0501,10:00~22:00,N,N,Y,N,Y,Y,11045,OPEN,37.5170614,126.903324
122,서울,영풍문고종각종로본점,"서울 종로구 청계천로 41 서린동,영풍빌딩",03188,02-399-6488,10:00~20:00,N,Y,Y,N,N,N,13183,OPEN,37.5695654,126.982106
123,서울,오금,"서울 송파구 동남로 313(오금동,1층)",138859,02-3012-8718,09:00~23:00,N,Y,Y,N,Y,N,12436,OPEN,37.503381,127.137971
124,서울,오류동역,서울 구로구 경인로20길 10,08271,02-2613-3005,09:00~24:00,N,Y,Y,N,N,Y,11199,OPEN,37.495696,126.843847
125,서울,왕십리역사,서울 성동구 왕십리광장로 17,04750,02-2297-7111,24시간,Y,Y,Y,N,Y,Y,12884,OPEN,37.561768,127.038338
126,서울,외대역,서울 동대문구 이문동 288-26,130080,02-963-8855,09:00~02:00,N,Y,Y,N,N,N,12579,OPEN,37.596345,127.060931
127,서울,용산서계,서울 용산구 만리재로 150-1,04302,02-706-0444,09:00~24:00,N,Y,Y,N,N,N,12642,OPEN,37.552289,126.963754
128,서울,용산역사,서울 용산구 한강대로 23길 55 아이파크몰 4층,04380,02-2012-0430,08:00~22:00,N,Y,Y,N,Y,N,12977,OPEN,37.5295543,126.956367
129,서울,월계역,서울 노원구 초안산로2라길 20 1층 일부(월계동),01879,02-904-8425,09:00~22:00,N,Y,Y,N,N,N,13299,OPEN,37.6312081,127.057301
130,서울,응암,서울 은평구 응암동 98-65 은경빌딩 1층,03462,02-357-7184,09:30~22:00,N,Y,Y,N,N,N,13273,OPEN,37.6002106,126.923066
131,서울,응암오거리,서울 은평구 응암로 177,122924,02-308-9341,10:00~23:00,N,Y,Y,N,Y,Y,11160,OPEN,37.587909,126.916326
132,서울,이대,서울 서대문구 이화여대길 59,03766,02-312-3468,10:00~22:00,N,Y,Y,N,N,Y,12925,OPEN,37.558987,126.945158
133,서울,이수역,"서울 동작구 동작대로 129, 지상1층",06997,02-594-1199,09:00~01:00,N,Y,Y,N,N,Y,12002,OPEN,37.488528,126.981772
134,서울,잠실롯데월드몰B1,서울 송파구 신천동 서울시 송파구 신천동 29번지 지하1층,138240,02-3213-4785,10:30~22:00,N,N,Y,N,Y,N,12405,OPEN,37.5137414,127.104426
135,서울,장안사거리,서울 동대문구 답십리로 287,130839,02-2245-9730,10:00~23:00,N,Y,Y,N,Y,Y,11162,OPEN,37.572691,127.072321
136,서울,장한평역,서울 동대문구 천호대로 401,02633,02-2215-2925,09:00~22:00,N,Y,Y,N,N,N,12755,OPEN,37.56193,127.063729
137,서울,정릉,서울 성북구 보국문로8길 4,02718,02-942-9115,09:00~24:00,N,Y,Y,N,Y,Y,12066,OPEN,37.607063,127.01079
138,서울,제기역,서울 동대문구 왕산로 86,02585,02-928-4455,08:30~01:00,N,Y,Y,N,N,N,12734,OPEN,37.577921,127.033021
139,서울,종암,서울 성북구 종암로 91,136861,02-921-5222,09:00~23:00,N,Y,Y,N,N,N,12106,OPEN,37.598365,127.034352
140,서울,중곡,서울 광진구 면목로136,143901,02-463-9677,09:00~23:00,N,Y,Y,N,N,Y,12146,OPEN,37.56539,127.081137
141,서울,중랑역,서울 중랑구 망우로 192,131861,02-2208-2544,06:00~23:30,N,Y,Y,N,N,N,12230,OPEN,37.59316,127.074134
142,서울,중앙대,서울 동작구 흑석로 110-1,156861,02-817-3200,09:00~01:30,N,Y,Y,N,N,Y,12049,OPEN,37.50828,126.961459
143,서울,중화역,서울 중랑구 동일로 802,02051,02-496-8028,24시간,Y,Y,Y,N,N,N,12750,OPEN,37.601827,127.079683
144,서울,창동역,서울 도봉구 노해로 63길78,132903,02-900-2033,09:00~01:00,N,Y,Y,N,N,N,12283,OPEN,37.652525,127.046338
145,서울,창천,서울 서대문구 신촌로 15,03785,02-926-8884,09:00~01:30,N,Y,Y,N,N,N,12851,OPEN,37.558244,126.92871
146,서울,천왕역,서울 구로구 오리로 오리로 1149 랑데르,08363,02-2686-8077,09:00~22:00,N,Y,Y,N,Y,N,12522,OPEN,37.486604,126.83825
147,서울,천호역,서울 강동구 올림픽로 654,05328,02-488-7165,24시간,Y,Y,Y,N,N,N,12301,OPEN,37.539713,127.124031
148,서울,청계산입구역,서울 서초구 청계산로 201,06802,02-2058-1911,10:00~22:00,N,Y,Y,N,Y,N,12894,OPEN,37.4476486,127.057119
149,서울,청구역,서울 중구 다산로 168,100450,02-2237-5725,08:30~23:00,N,Y,Y,N,N,Y,12181,OPEN,37.556382,127.014262
150,서울,청량리,서울 동대문구 왕산로 209,130867,02-965-5953,24시간,Y,Y,Y,N,N,Y,11182,OPEN,37.580979,127.04596
151,서울,청량리역사,서울 동대문구 왕산로 왕산로 214길,02555,02-969-5433,08:00~22:00,N,N,Y,N,N,N,12833,OPEN,37.57996,127.047901
152,서울,학동역,서울 강남구 학동로 219 1층,135818,02-3443-9200,24시간,Y,Y,Y,N,Y,Y,12353,OPEN,37.514964,127.03311
153,서울,한성대입구역,서울 성북구 동소문로 2,136032,02-763-8869,09:00~01:30,N,Y,Y,N,N,Y,12186,OPEN,37.588408,127.006776
154,서울,한티역,서울 강남구 선릉로64길 14 1층 103호,06206,02-6104-5551,09:00~22:30,N,Y,Y,N,N,N,13251,OPEN,37.4977822,127.053425
155,서울,혜화,서울 종로구 창경궁로 273 지상 1층,110530,02-741-1956,09:00~22:00,N,Y,Y,N,N,Y,13264,OPEN,37.5858028,127.000567
156,서울,홈플러스강동,서울 강동구 양재대로 1571,05314,02-489-4781,10:00~22:00,N,Y,Y,N,N,N,13003,OPEN,37.5457058,127.14223
157,서울,홈플러스방학,서울 도봉구 도봉로 678,132854,02-3492-8182,10:00~21:00,N,Y,Y,N,Y,Y,11181,OPEN,37.664819,127.043681
158,서울,홈플러스상봉,서울 중랑구 망우로 353 홈플러스상봉점 內 1층,02087,02-433-1120,10:00~21:30,N,N,Y,N,N,Y,12382,CLOSING,37.5980767,127.090342
159,서울,홈플러스신내,서울 중랑구 신내로 201,131872,02-3423-1515,10:00~21:00,N,Y,Y,N,Y,Y,11180,OPEN,37.615804,127.093646
160,서울,홈플러스영등포,"서울 영등포구 당산로 42 1,2층",150991,02-2678-5250,10:00~21:30,N,Y,Y,N,Y,Y,12197,OPEN,37.518188,126.895852
161,서울,홈플러스월곡,서울 성북구 화랑로 76,136743,02-915-1681,10:00~21:00,N,Y,Y,N,Y,N,11956,OPEN,37.602215,127.039857
162,서울,홈플러스월드컵,서울 마포구 월드컵로 240,03932,02-303-9556,10:00~21:00,N,N,Y,N,Y,N,13017,OPEN,37.5682507,126.897348
163,서울,홍대,서울 마포구 양화로 141,03995,02-3143-1843,24시간,Y,Y,Y,N,N,Y,13071,OPEN,37.5558091,126.921811
164,서울,홍은포방,서울 서대문구 홍은중앙로 100,03605,02-391-5550,10:00~22:00,N,Y,Y,N,N,N,12960,OPEN,37.5991,126.948
165,서울,홍제,서울 서대문구 통일로 413 1층 (일부) 103호,03646,02-395-5883,10:00~22:00,N,Y,Y,N,Y,N,13353,OPEN,37.586181,126.946438
166,서울,화곡시장,서울 강서구 가로공원로 76길 56 (화곡동) 1층,157884,02-2602-9160,06:20~02:30,N,Y,Y,N,N,Y,11124,CLOSING,37.534528,126.837813
167,서울,화곡역,서울 강서구 화곡로 157,07714,02-2607-3311,24시간,Y,Y,Y,N,N,Y,12874,OPEN,37.541532,126.839018
168,서울,후암,서울 용산구 후암로 54,04327,02-318-1599,09:00~24:00,N,Y,Y,N,N,N,12403,OPEN,37.550666,126.977338
169,서울,GS마트상계,서울 노원구 한글비석로 471,139826,02-2091-0058,09:30~22:30,N,Y,Y,N,Y,Y,11137,OPEN,37.664121,127.065558
170,서울,NC강서,서울 강서구 강서로 56길 17,157930,02-2667-9825,10:30~20:30,N,Y,Y,N,N,N,12132,OPEN,37.5599427,126.840328
171,경기,가평,경기 가평군 가평읍 가화로 106,477805,031-581-0055,09:30~21:00,N,Y,Y,N,N,Y,11386,OPEN,37.829184,127.51422
172,경기,가평설악,경기 가평군 설악면 신천중앙로 98,12465,031-585-7776,10:00~20:00,N,Y,Y,N,Y,Y,12879,OPEN,37.6771201,127.492887
173,경기,가평현리,경기 가평군 하면 현리 가평군 하면 현리 409-11,477834,031-585-3353,09:30~21:00,N,Y,Y,N,Y,Y,12453,OPEN,37.8184,127.348838
174,경기,경기광주역,경기 광주시 역동로 59,12778,031-766-3344,10:00~22:00,N,Y,Y,N,Y,N,12983,OPEN,37.4032192,127.256363
175,경기,경기대역,경기 수원시 영통구 대학4로 9,16226,031-217-0026,09:00~20:30,N,Y,Y,N,Y,N,12698,CLOSING,37.300475,127.045515
176,경기,경기북부청사,경기 의정부시 장곡로 620,11775,031-851-8577,10:00~23:00,N,Y,Y,N,N,Y,13031,OPEN,37.7503269,127.071631
177,경기,경안제일,경기 광주시 중앙로 152,464801,031-761-8282,10:00~22:00,N,Y,Y,N,N,Y,11302,CLOSING,37.413098,127.257271
178,경기,고덕국제,경기 평택시 고덕면 고덕중앙로 218,17770,031-665-5055,08:00~01:00,N,Y,Y,N,Y,N,12978,OPEN,37.0478897,127.044955
179,경기,고양,경기 고양시 덕양구 푸른마을로 34-6,412500,031-967-5335,09:00~22:00,N,Y,Y,N,Y,Y,12083,CLOSING,37.710349,126.905034
180,경기,고양관산,경기 고양시 덕양구 관산동 통일로 792,412802,031-964-9339,10:00~22:00,N,Y,Y,N,Y,N,12445,OPEN,37.68875,126.862903
181,경기,고양능곡,"경기 고양시 덕양구 토당로 105 107호 108호(토당동, 대곡역 두산위브2단지)",10509,031-817-0077,09:00~23:00,N,Y,Y,N,Y,N,13168,OPEN,37.6247249,126.816627
182,경기,고양덕은,경기 고양시 덕양구 으뜸로 130 DMC하늘빌딩 110호 111호 112호,10544,02-3159-9900,09:00~24:00,N,Y,Y,N,Y,N,13171,OPEN,37.5799287,126.871225
183,경기,고양삼송,경기 고양시 덕양구 동송로 30,10595,02-6989-7979,10:00~23:00,N,Y,Y,N,N,Y,13060,OPEN,37.6497092,126.897994
184,경기,고양원흥,경기 고양시 덕양구 도내동 957,412060,031-962-3211,09:30~22:30,N,Y,Y,N,Y,N,12580,OPEN,37.63508,126.87147
185,경기,고양행신역,경기 고양시 덕양구 행신동 무원로6번길 50,412825,070-8805-5516,10:00~22:30,N,Y,Y,N,Y,Y,11440,OPEN,37.6148,126.833721
186,경기,곤지암,경기 광주시 곤지암읍 곤지암로 54,464872,031-769-0085,09:00~22:00,N,Y,Y,N,N,Y,11384,OPEN,37.349539,127.341744
187,경기,광교,경기 수원시 영통구 도청로89번길 43,16509,031-212-2205,10:00~22:30,N,Y,Y,N,N,N,12903,OPEN,37.28987,127.04764
188,경기,광교D/T,경기 용인시 수지구 상현동 493-8,448130,031-261-1357,08:30~22:30,N,Y,Y,N,Y,Y,12154,OPEN,37.299144,127.067447
189,경기,광명,경기 광명시 광명로 890,423858,02-2066-7172,09:00~23:00,N,Y,Y,N,N,Y,11401,OPEN,37.478337,126.854248
190,경기,광명소하,경기 광명시 금하로 522 1층,14318,02-899-6415,10:00~22:00,N,Y,Y,N,Y,Y,13117,OPEN,37.4505737,126.890097
191,경기,광명철산,경기 광명시 시청로 106 1층(철산동),14226,02-2611-1001,09:30~21:30,N,Y,Y,N,N,N,13306,OPEN,37.48567,126.866222
192,경기,광명하안,경기 광명시 범안로 1045,423847,02-899-9874,09:00~22:00,N,Y,Y,N,Y,N,12098,OPEN,37.462404,126.87885
193,경기,광주능평,경기 광주시 오포읍 태재로 129 1층,12772,031-726-9881,09:00~22:00,N,Y,Y,N,Y,N,12538,OPEN,37.3579987,127.163517
194,경기,광주오포,경기 광주시 오포읍 양벌리 375-1,464896,031-767-0051,09:00~22:00,N,Y,Y,N,N,N,12539,OPEN,37.378306,127.254369
195,경기,광주태전,경기 광주시 장지동 고불로 43-1,464070,031-763-3500,10:00~22:00,N,Y,Y,N,Y,Y,12461,OPEN,37.393316,127.233201
196,경기,광주퇴촌,경기 광주시 퇴촌면 천진암로 354,12711,031-769-1233,10:00~21:00,N,Y,Y,N,Y,N,12889,OPEN,37.4717178,127.311253
197,경기,구리갈매,"경기 구리시 갈매중앙로 91, 105호",11901,031-528-8892,10:00~22:00,N,Y,Y,N,N,N,12840,OPEN,37.633394,127.117321
198,경기,구리돌다리,경기 구리시 검배로 21,11929,031-564-2233,08:30~24:00,N,Y,Y,N,Y,Y,12065,OPEN,37.59948,127.142618
199,경기,구리인창,경기 구리시 건원대로 75,11918,031-567-7900,09:00~23:00,N,Y,Y,N,N,Y,12067,OPEN,37.60768,127.138632
200,경기,구리토평,경기 구리시 체육관로26,471030,031-568-6601,09:00~22:00,N,Y,Y,N,Y,Y,12015,OPEN,37.586818,127.138191
201,경기,군포당동,경기 군포시 고산로262,435010,031-398-0053,09:00~23:00,N,Y,Y,N,Y,Y,11356,OPEN,37.34675,126.943588
202,경기,군포송정지구,경기 군포시 송부로 42,15880,031-418-0808,09:00~22:00,N,Y,Y,N,N,Y,12957,OPEN,37.3159582,126.918996
203,경기,금곡,경기 남양주시 금곡동 156-40,472010,031-594-1259,10:00~21:00,N,Y,Y,N,Y,Y,12482,OPEN,37.634236,127.210468
204,경기,금정역,경기 군포시 산본천로 213,15806,031-394-8989,10:00~22:00,N,Y,Y,N,N,N,12863,OPEN,37.371879,126.942584
205,경기,금촌,경기 파주시 문화로 105,413814,031-944-5466,08:00~24:00,N,Y,Y,N,N,Y,11262,OPEN,37.763675,126.77432
206,경기,금촌로터리,경기 파주시 황골로 39,413826,031-944-4611,09:00~22:00,N,Y,Y,N,Y,Y,11330,OPEN,37.755755,126.773197
207,경기,김포고촌,경기 김포시 고촌읍 장차로5번길 10,10126,031-987-9268,09:00~22:00,N,Y,Y,N,N,Y,12995,OPEN,37.6031178,126.769808
208,경기,김포구래,경기 김포시 김포한강9로 76번길 41,10071,031-998-9945,09:00~01:00,N,Y,Y,N,Y,Y,12465,OPEN,37.6444222,126.627264
209,경기,김포마산,경기 김포시 김포한강8로148번길 5,10068,031-987-9412,10:00~22:00,N,Y,Y,N,N,Y,13051,OPEN,37.6360122,126.643406
210,경기,김포사우,경기 김포시 사우중로 92,415802,031-982-0214,10:00~23:00,N,Y,Y,N,Y,Y,12352,OPEN,37.62243,126.721721
211,경기,김포양곡,경기 김포시 양촌읍 양곡2로 30번길 7-19,415840,031-985-6472,09:00~22:00,N,Y,Y,N,N,N,12157,OPEN,37.655052,126.627707
212,경기,김포운양,경기 김포시 운양동 1299-1,415050,031-985-7993,09:00~23:00,N,Y,Y,N,Y,Y,12455,OPEN,37.654151,126.682579
213,경기,김포장기,경기 김포시 김포한강 1로 78번길 5(장기동),415060,031-982-7410,09:30~23:00,N,Y,Y,N,N,N,11444,OPEN,37.6449591805751,126.670221420925
214,경기,김포통진,경기 김포시 통진읍 김포대로 2242,415865,031-983-5901,09:00~22:00,N,Y,Y,N,Y,Y,12077,OPEN,37.690487,126.597489
215,경기,김포풍무,경기 김포시 풍무로 122,10116,031-996-1550,08:00~23:00,N,Y,Y,N,N,Y,13019,OPEN,37.6062777,126.722766
216,경기,남양주덕소,경기 남양주시 와부읍 수레로 100,12207,031-577-5366,09:00~22:00,N,Y,Y,N,Y,N,13026,OPEN,37.5919158,127.220207
217,경기,남양주진접,경기 남양주시 진접읍 해밀예당3로 87 1층,12057,031-575-6560,10:00~22:00,N,Y,Y,N,N,N,13283,OPEN,37.7174893,127.197121
218,경기,남양주청학,경기 남양주시 청학로중앙길15,472811,031-825-2233,09:00~22:00,N,Y,Y,N,Y,Y,11339,OPEN,37.708662,127.11788
219,경기,남양주화도D/T,경기 남양주시 화도읍 먹갓로28번길 77-4,12171,031-595-7731,09:00~23:00,N,Y,Y,N,Y,Y,12971,OPEN,37.6578771,127.28358
220,경기,능평삼거리,경기 광주시 오포읍 능평로 216,12773,031-797-1468,09:00~22:00,N,Y,Y,N,Y,N,13058,OPEN,37.3440385,127.178406
221,경기,다산,경기 남양주시 도농로 24 부영 애시앙 상가 143호,472910,031-564-8880,10:00~22:00,N,Y,Y,N,Y,Y,11412,OPEN,37.608619,127.158657
222,경기,다산진건,경기 남양주시 다산순환로 KB골든타워,12285,031-551-7002,09:00~22:00,N,Y,Y,N,Y,N,12915,OPEN,37.6259029,127.156383
223,경기,동두천,경기 동두천시 중앙로 270,483801,031-867-5057,08:00~23:30,N,Y,Y,N,N,Y,11274,OPEN,37.905655,127.054288
224,경기,동수원,경기 수원시 팔달구 인계로 166번길 48-21,442835,031-238-4747,09:00~02:45,N,Y,Y,N,Y,Y,11306,OPEN,37.264569,127.033428
225,경기,동탄산척,경기 화성시 동탄순환대로 245,18501,031-374-0435,09:00~22:00,N,Y,Y,N,Y,N,13000,OPEN,37.169694,127.117684
226,경기,동탄신리천,경기 화성시 동탄기흥로353번길 102 JS에듀타워,18480,031-375-3085,10:00~22:00,N,Y,Y,N,N,N,13159,OPEN,37.187559,127.085477
227,경기,동탄역사,경기 화성시 동탄역로 151,18478,031-378-9271,06:00~21:00,N,Y,Y,N,Y,N,12744,OPEN,37.199455,127.096996
228,경기,동탄주거단지,"경기도 화성시 동탄순환대로20길 118,1층 104~106호(목동)",18484,031-373-2575,09:00~22:00,N,Y,Y,N,Y,Y,12877,OPEN,37.1830013,127.124808
229,경기,동탄커뮤니티,"경기 화성시 동탄순환대로 685, 104호",18466,031-372-8694,10:00~22:00,N,Y,Y,N,Y,Y,12664,OPEN,37.205956,127.110926
230,경기,동탄테크노밸리,경기도 화성시 동탄구 동탄대로 683 SH스퀘어2 1층,18468,031-5183-1006,08:00~22:00,N,Y,Y,N,N,N,13356,OPEN,37.2144615,127.100603
231,경기,동탄호수공원,경기 화성시 동탄면 동탄순환대로 127-19,18505,031-372-2505,09:00~24:00,N,Y,Y,N,Y,Y,12982,OPEN,37.1673941,127.107241
232,경기,동탄CGV,경기 화성시 동탄대로 537,18471,031-378-2018,09:00~22:00,N,Y,Y,N,N,Y,12853,OPEN,37.201873,127.097896
233,경기,롯데마트고양,경기 고양시 덕양구 행신동 중앙동 558번길 21,412836,031-972-5880,10:00~22:00,N,Y,Y,N,Y,Y,11438,OPEN,37.624673,126.83594
234,경기,롯데마트김포한강신도시,경기 김포시 김포한강2로 41,10088,031-984-1311,10:00~21:00,N,Y,Y,N,Y,N,12823,OPEN,37.6406063,126.677397
235,경기,롯데마트수원천천,경기 수원시 장안구 만석로 19번길 25-10,440330,031-268-6305,10:00~21:30,N,Y,Y,N,Y,Y,12185,OPEN,37.296373,126.982183
236,경기,롯데마트시흥,경기 시흥시 비둘기공원로 28(대야동),429874,031-315-5955,10:00~21:30,N,Y,Y,N,Y,N,12234,OPEN,37.443126,126.7919
237,경기,롯데마트시흥배곧,경기 시흥시 서울대학로278번길 67,15011,031-433-0202,10:00~22:00,N,Y,Y,N,Y,Y,12797,OPEN,37.3690096,126.73104
238,경기,롯데마트오산,경기 오산시 경기대로 271,447801,031-377-8187,10:00~21:30,N,Y,Y,N,Y,Y,11364,OPEN,37.149642,127.073035
239,경기,롯데아울렛고양터미널,경기 고양시 일산동구 백석동 1242,410360,031-936-3539,10:30~22:00,N,Y,Y,N,Y,N,12620,OPEN,37.6432127,126.789682
240,경기,롯데아울렛광명,경기 광명시 일직동 500 롯데아울렛광명점 5층내,423090,02-6226-2728,10:30~21:00,N,N,Y,N,Y,Y,12553,OPEN,37.4242127,126.883426
241,경기,롯데이천아울렛,경기 이천시 호법면 프리미엄아울렛로 롯데프리미엄아울렛이천점 1층,17384,031-887-4753,10:30~21:00,N,N,Y,N,Y,N,12574,OPEN,37.241835,127.40046
242,경기,마석,경기 남양주시화도읍 마석로 14,472848,031-593-0400,09:00~23:00,N,Y,Y,N,N,N,11298,OPEN,37.652229,127.306583
243,경기,만안구청,경기 안양시 만안구 안양로 122 만안빌딩 롯데리아,430824,031-468-9927,10:00~22:00,N,Y,Y,N,Y,Y,12354,OPEN,37.385855,126.932733
244,경기,망포역,경기 수원시 영통구 영통동 979-7,443470,031-206-7678,09:00~24:00,N,Y,Y,N,N,Y,12368,OPEN,37.246134,127.056642
245,경기,모란역,"경기 성남시 중원구 광명로 8 1층 일부,2층 일부(성남동, 예지빌딩)",13364,031-722-0773,09:00~24:00,N,Y,Y,N,N,N,13143,OPEN,37.432806,127.130132
246,경기,목감신도시,경기 시흥시 목감우회로 39,14985,031-414-5937,10:00~24:00,N,Y,Y,N,Y,Y,12738,OPEN,37.381995,126.860279
247,경기,문산,경기 파주시 문산읍 문향로 70,413904,031-954-3311,08:30~01:00,N,Y,Y,N,Y,Y,12006,OPEN,37.857702,126.785231
248,경기,미사역,"경기 하남시 미사강변동로 100-1 1025호, 1026호",12912,031-791-1150,10:00~22:00,N,Y,Y,N,Y,Y,12896,OPEN,37.5643105,127.193799
249,경기,배곧신도시,경기 시흥시 배곧4로 103,15010,031-434-1881,09:00~22:00,N,Y,Y,N,Y,N,12778,OPEN,37.374119,126.734045
250,경기,별내,경기 남양주시 별내동 별내 5로 5번길 11,472501,031-575-0076,10:00~22:00,N,Y,Y,N,Y,Y,12207,OPEN,37.650236,127.114279
251,경기,별내신도시,경기 남양주시 별내동 순화궁로 347,472501,031-575-7401,10:00~22:00,N,Y,Y,N,N,Y,12221,OPEN,37.657746,127.125409
252,경기,병점역,경기 화성시 병점노을5로 20 116호~118호(병점동),18371,070-4177-0116,10:00~22:00,N,Y,Y,N,N,N,13357,OPEN,37.205933,127.030606
253,경기,봉일천,경기 파주시 조리읍 봉천로 40,413823,031-949-4061,10:00~22:00,N,Y,Y,N,N,Y,11352,OPEN,37.7438096308418,126.807342589436
254,경기,부천고강,경기 부천시 오정구 역곡로481번길 9,421801,032-677-7654,09:00~23:00,N,Y,Y,N,Y,Y,11300,OPEN,37.527701,126.815457
255,경기,부천도당,경기 부천시 원미구 도당동 58-2,420802,032-683-0045,09:00~23:00,N,Y,Y,N,Y,Y,12484,OPEN,37.519966,126.789495
256,경기,부천범박,경기 부천시 소사구 소사동로 87,422090,070-7778-5623,10:00~23:00,N,Y,Y,N,Y,Y,12085,OPEN,37.473907,126.8041
257,경기,부천상동,경기 부천시 원미구 길주로 91 비잔티움 1층 101호~104호,14543,032-328-4441,09:00~22:00,N,Y,Y,N,Y,Y,11349,OPEN,37.5063068,126.752306
258,경기,부천송내,경기 부천시 원미구 부일로 202-13,420714,032-324-0514,10:00~22:00,N,Y,Y,N,N,Y,11259,OPEN,37.488108,126.75257
259,경기,부천송내D/T,경기 부천시 소사구 경인로 36,14743,032-612-6715,08:30~23:30,N,Y,Y,N,Y,Y,12923,OPEN,37.483245,126.75941
260,경기,부천시청역,경기 부천시 원미구 중동 1031-2,420845,032-321-7704,10:00~22:00,N,Y,Y,N,Y,Y,12422,OPEN,37.505275,126.76263
261,경기,부천약대,경기 부천시 오정구 평천로 725 1층,421810,032-674-1237,09:00~23:00,N,Y,Y,N,N,Y,12347,OPEN,37.515287,126.771487
262,경기,부천역,경기 부천시 소사구 부천로1 부천역사 쇼핑몰,422758,032-613-0410,24시간,Y,Y,Y,N,N,Y,11079,OPEN,37.484215,126.782779
263,경기,부천오정,경기 부천시 오정구 오정로249,421170,032-682-3535,09:30~22:30,N,Y,Y,N,Y,N,11859,OPEN,37.529859,126.785963
264,경기,부천옥길,경기 부천시 소사구 옥길로 129 1층,14784,032-343-0525,10:00~22:00,N,Y,Y,N,Y,Y,13272,OPEN,37.4684302,126.8228
265,경기,부천원종,경기 부천시 오정구 소사로 756,421820,032-679-5985,24시간,Y,Y,Y,N,Y,Y,11266,OPEN,37.523383,126.805196
266,경기,부천중동,경기 부천시 원미구 중동로 254번길 104,420852,032-327-8755,10:00~23:00,N,Y,Y,N,Y,Y,12191,OPEN,37.501508,126.774636
267,경기,분당미금,경기 성남시 분당구 돌마로 68,463808,031-712-1164,09:00~22:00,N,Y,Y,N,Y,Y,11351,OPEN,37.3496268,127.109517
268,경기,분당미금아울렛,경기 성남시 분당구 미금일로154번길 20,463808,031-719-5365,09:00~21:00,N,Y,Y,N,Y,Y,11381,OPEN,37.349281,127.107286
269,경기,분당서현,경기 성남시 분당구 분당로53번길 9,13591,031-703-4333,09:00~23:00,N,Y,Y,N,N,N,13205,OPEN,37.3839715,127.121196
270,경기,분당수내동,경기 성남시 분당구 불정로 256,463865,031-713-2229,24시간,Y,Y,Y,N,N,Y,12374,CLOSING,37.3664857,127.126971
271,경기,산본,경기 군포시 산본로 343번길 21,435805,031-391-9595,09:00~23:00,N,Y,Y,N,N,Y,11270,OPEN,37.359997,126.930593
272,경기,서동탄역,경기 화성시 남여울2길 화성시 남여울2길 4,18428,031-613-4874,09:30~23:00,N,Y,Y,N,Y,Y,12571,OPEN,37.199194,127.052663
273,경기,성남,경기 성남시 수정구 수정로 181,461825,031-755-5454,09:00~02:00,N,Y,Y,N,N,Y,11250,OPEN,37.443599,127.139994
274,경기,성남단대,경기 성남시 중원구 산성대로 372번길 15,462805,031-732-1521,09:00~22:00,N,Y,Y,N,N,Y,11451,OPEN,37.445097,127.158802
275,경기,성남도촌,경기 성남시 중원구 도촌동 604,462080,031-723-9994,10:00~01:00,N,Y,Y,N,Y,Y,12577,OPEN,37.416433,127.151156
276,경기,성남상대원,경기 성남시 중원구 희망로 348,462816,031-735-1722,06:00~24:00,N,Y,Y,N,N,N,11371,OPEN,37.436797,127.15835
277,경기,성남신흥,경기 성남시 수정구 산성대로 241번길 239,461863,031-721-3190,09:00~22:30,N,Y,Y,N,N,N,11257,OPEN,37.43974,127.143872
278,경기,성남양지,경기 성남시 수정구 산성대로 531,461815,031-734-5962,09:00~23:30,N,Y,Y,N,N,Y,11267,OPEN,37.458466,127.164145
279,경기,성남태평역,경기 성남시 수정구 수정로 94-1 1층 일부(수전동),13316,031-697-8814,09:00~02:00,N,Y,Y,N,N,N,13337,OPEN,37.4404277,127.130948
280,경기,성남테크노밸리,경기 성남시 중원구 사기막골로 124,462721,031-776-4188,10:00~22:00,N,Y,Y,N,Y,Y,12056,OPEN,37.440072,127.177651
281,경기,송산새솔동,경기도 화성시 수노을중앙로 122,18244,031-355-3328,10:00~22:00,N,Y,Y,N,Y,Y,12914,OPEN,37.2813662,126.820503
282,경기,수원고색,경기 수원시 권선구 매송고색로691번길 18,16625,031-295-9265,10:00~22:00,N,Y,Y,N,Y,Y,12910,OPEN,37.251211,126.980229
283,경기,수원곡반정,"경기 수원시 권선구 곡반정로 65번길 33, 102호",441400,031-231-1222,10:00~22:00,N,Y,Y,N,N,Y,12385,OPEN,37.234901,127.026959
284,경기,수원권선,경기 수원시 권선구 동수원로 242번길 20,441885,031-221-1832,09:00~24:00,N,Y,Y,N,Y,N,11318,OPEN,37.25041,127.035582
285,경기,수원금곡,"경기 수원시 권선구 금곡로 225 금곡동1115-4 딜라이트2 110, 111호",16391,031-294-0023,09:00~23:40,N,Y,Y,N,N,N,13101,OPEN,37.2751339,126.954771
286,경기,수원당수,경기 수원시 권선구 당진로 20,16375,031-417-3353,09:00~22:00,N,Y,Y,N,N,N,12943,OPEN,37.2908235,126.940721
287,경기,수원매탄,경기 수원시 영통구 중부대로 248,443800,031-215-1294,09:00~22:00,N,Y,Y,N,Y,Y,11255,OPEN,37.274727,127.042771
288,경기,수원북문,경기 수원시 장안구 영화동 301-6,440050,031-256-8007,09:00~22:00,N,Y,Y,N,N,N,11415,OPEN,37.292402,127.011925
289,경기,수원성대,경기 수원시 장안구 서부로 2119 롯데리아 수원성대점,16362,031-293-7755,09:30~23:30,N,Y,Y,N,N,Y,11411,OPEN,37.298027,126.970807
290,경기,수원역광장,경기 수원시 팔달구 덕영대로 924 AK플라자 1F,16622,031-240-0885,24시간,Y,Y,Y,N,Y,N,11076,OPEN,37.2661507,126.999872
291,경기,수원역사,경기 수원시 팔달구 덕영대로 924,442784,031-240-0587,07:00~22:00,N,Y,Y,N,Y,N,12290,OPEN,37.26607,126.999767
292,경기,수원연무,경기 수원시 장안구 창룡대로 197,16219,031-253-3389,09:00~23:00,N,Y,Y,N,Y,N,12719,OPEN,37.292645,127.031776
293,경기,수원영통,경기 수원시 영통구 청명남로 21,16704,031-206-0066,09:00~24:00,N,Y,Y,N,Y,N,12919,OPEN,37.252035,127.07445
294,경기,수원율현,경기 수원시 팔달구 일월로22번길 4,16424,031-292-1740,10:00~22:00,N,Y,Y,N,N,N,11361,OPEN,37.285222,126.98038
295,경기,수원정자,"경기 수원시 장안구 정자천로173번길 17, 1층 107호",16334,031-269-0069,09:00~24:00,N,Y,Y,N,Y,Y,12048,OPEN,37.295554,126.993615
296,경기,수원탑동,경기 수원시 권선구 탑동로 68,441440,031-294-1840,09:30~22:30,N,Y,Y,N,N,N,12508,OPEN,37.274946,126.973846
297,경기,수원터미널,경기 수원시 권선구 경수대로 270 1311호,441713,031-267-7942,09:00~23:30,N,Y,Y,N,Y,Y,11324,OPEN,37.250443,127.020885
298,경기,수원파장,경기 수원시 장안구 파장로 91,16337,031-268-7087,10:00~23:00,N,Y,Y,N,Y,N,13055,OPEN,37.3072103,126.990712
299,경기,수원팔달,경기 수원시 팔달구 정조로 777,442023,031-243-6983,24시간,Y,Y,Y,N,N,Y,11387,OPEN,37.277308,127.01611
300,경기,수원호매실,경기 수원시 권선구 금곡로 106(금곡동),441842,031-292-1213,09:00~23:00,N,Y,Y,N,Y,N,12254,OPEN,37.273959,126.942215
301,경기,수원화서,경기 수원시 팔달구 팔달로 105,442860,031-255-4333,09:00~22:00,N,Y,Y,N,Y,Y,11278,OPEN,37.27807,127.003171
302,경기,수지풍덕천,경기 용인시 수지구 풍덕천로 133,16837,031-265-9989,09:00~23:00,N,Y,Y,N,Y,N,12690,OPEN,37.323668,127.096211
303,경기,시흥거모,경기 시흥시 도일로135번길 4,15070,031-492-3188,09:00~23:00,N,Y,Y,N,Y,Y,12389,OPEN,37.342528,126.784621
304,경기,시흥능곡,"경기 시흥시 장현능곡로 198 (능곡동,126,127호)",429240,031-316-2727,09:00~23:00,N,Y,Y,N,Y,N,11996,OPEN,37.36904,126.811999
305,경기,시흥시화,경기 시흥시 옥구상가2길 4,429864,031-496-0811,09:00~23:30,N,Y,Y,N,Y,Y,11343,OPEN,37.353929,126.723955
306,경기,시흥연성,경기 시흥시 진말로 19번길 16,429842,031-404-2233,09:00~22:00,N,Y,Y,N,Y,Y,11350,OPEN,37.379269,126.78387
307,경기,시흥월곶,경기 시흥시 월곶동 월곶중앙로(61) 월곶동,429834,031-432-7500,10:00~22:00,N,Y,Y,N,N,Y,12112,OPEN,37.388628,126.738324
308,경기,시흥은계,경기 시흥시 은계번영길 25,14923,031-311-5318,09:00~22:00,N,Y,Y,N,Y,Y,12974,OPEN,37.4367478,126.803938
309,경기,시흥은행,경기 시흥시 대은로83,429874,031-404-0361,09:00~22:30,N,Y,Y,N,Y,Y,11315,OPEN,37.444955,126.797533
310,경기,시흥정왕,경기 시흥시 정왕대로 220,429861,031-319-3191,09:00~22:00,N,Y,Y,N,Y,Y,11294,OPEN,37.345453,126.737672
311,경기,시흥정왕역,경기 시흥시 마유로418번 길10,429450,031-499-8712,08:00~22:00,N,Y,Y,N,Y,N,12093,OPEN,37.351382,126.741768
312,경기,시흥제일,경기 시흥시 호현로10번길 17,429828,031-313-2222,09:00~22:00,N,Y,Y,N,N,Y,11358,OPEN,37.441092,126.785054
313,경기,시흥하중,경기 시흥시 하중로 213-1,14976,031-317-0957,10:00~22:00,N,Y,Y,N,Y,N,12647,OPEN,37.392513,126.805751
314,경기,신호매실,경기 수원시 권선구 호매실동 호매실로104번길 24-61,441450,031-296-2141,10:00~22:00,N,Y,Y,N,Y,N,12520,OPEN,37.257189,126.964058
315,경기,안산그랑시티자이,"경기 안산시 상록구 해양1로 199, 그랑시티 PORT AVENUE",15596,031-406-0959,10:00~22:00,N,Y,Y,N,N,Y,13036,OPEN,37.2827688,126.830603
316,경기,안산반월,경기 안산시 상록구 건건2길 6,426210,031-437-2230,10:00~22:00,N,Y,Y,N,Y,Y,12277,OPEN,37.303875,126.902042
317,경기,안산본오,경기 안산시 상록구 샘골로 150 동성빌딩 101,426815,031-416-3374,09:30~24:00,N,Y,Y,N,Y,Y,11328,OPEN,37.29721,126.863406
318,경기,안산부곡,경기 안산시 상록구 부곡로 118,15305,031-418-0502,09:30~21:30,N,Y,Y,N,Y,Y,12676,OPEN,37.332449,126.863309
319,경기,안산사동,경기 안산시 상록구 항가울로 28,15629,031-408-5856,10:00~22:00,N,Y,Y,N,N,N,13045,OPEN,37.2847835,126.847728
320,경기,안산상록수,경기 안산시 상록구 상록수로40,426815,031-419-4200,24시간,Y,Y,Y,N,Y,Y,11260,OPEN,37.302244,126.864379
321,경기,안산선부,경기 안산시 단원구 선부로 166,425143,031-413-3366,09:00~23:00,N,Y,Y,N,Y,N,11261,OPEN,37.340368,126.814638
322,경기,안산신도시,경기 안산시 단원구 고잔동 광덕대로 154 로데오타운 1F,425906,031-480-5557,09:00~01:30,N,Y,Y,N,Y,Y,11347,OPEN,37.310132,126.83056
323,경기,안산역사,경기 안산시 단원구 중앙대로 462,425849,031-491-4774,08:00~02:00,N,Y,Y,N,Y,Y,11359,OPEN,37.327031,126.78957
324,경기,안산와동,경기 안산시 단원구 와동로 43,15254,031-401-2188,09:00~22:00,N,Y,Y,N,N,Y,12756,OPEN,37.334881,126.82895
325,경기,안산제일,경기 안산시 단원구 선부광장1로 56,425831,031-475-2020,24시간,Y,Y,Y,N,Y,Y,11355,OPEN,37.336573,126.810735
326,경기,안산중앙,"경기 안산시 단원구 고잔로 88,103, 104 (고잔동, 지스타)",15360,070-5213-5656,10:00~24:00,N,Y,Y,N,N,N,13167,OPEN,37.3187366,126.836027
327,경기,안산초지,경기 안산시 단원구 광덕1로 55,425854,031-403-3558,09:00~23:00,N,Y,Y,N,Y,N,11340,OPEN,37.30882,126.815831
328,경기,안산한양대,경기 안산시 상록구 광덕1로 379,426863,031-501-7474,09:00~23:00,N,Y,Y,N,N,Y,11856,OPEN,37.308639,126.851255
329,경기,안산D/T,경기 안산시 상록구 예술광장1로 68,15288,031-485-0228,24시간,Y,Y,Y,N,Y,N,11069,OPEN,37.328163,126.84808
330,경기,안성공도터미널D/T,경기 안성시 공도읍 용두리 275-123,17561,031-658-8202,09:00~22:00,N,Y,Y,N,Y,Y,13095,OPEN,36.998496,127.16511
331,경기,안성공도D/T,경기 안성시 공도읍 서동대로 3904-6,456826,031-692-3389,24시간,Y,Y,Y,N,Y,Y,12058,OPEN,36.994338,127.140462
332,경기,안성대림,경기 안성시 공도읍 마정리 144-2 1층,17548,031-656-8202,10:00~22:00,N,Y,Y,N,Y,N,13279,OPEN,37.0086947,127.195929
333,경기,안성아양,"경기 안성시 옥산동 593 폴리프라자 117,118,119호",00000,031-676-1173,09:00~24:00,N,Y,Y,N,N,Y,13119,OPEN,37.0070623,127.258303
334,경기,안성죽산,경기 안성시 죽산면 죽주로 282 롯데리아,17519,031-671-3336,10:00~22:00,N,Y,Y,N,Y,N,13074,OPEN,37.0759072,127.426432
335,경기,안성중앙,경기 안성시 중앙로 397,456330,031-672-6618,24시간,Y,Y,Y,N,N,Y,11354,OPEN,37.007462,127.270912
336,경기,안성중앙대,경기 안성시 대덕면 대학2길 22,17546,031-676-4599,10:00~24:00,N,Y,Y,N,N,Y,12895,OPEN,37.001656,127.224469
337,경기,안양,경기 안양시 만안구 안양로292번길 28 롯데리아안양점,13992,031-447-0289,08:00~23:00,N,Y,Y,N,N,Y,13286,OPEN,37.3989272,126.923309
338,경기,안양관양,경기 안양시 동안구 관악대로291(관양동),431805,031-381-8320,09:00~24:00,N,Y,Y,N,Y,Y,12220,OPEN,37.403122,126.955272
339,경기,안양박달D/I,경기 안양시 만안구 박달로 432,430848,031-441-6319,09:00~22:30,N,Y,Y,N,Y,Y,12241,OPEN,37.401588,126.901051
340,경기,안양범계,"경기 안양시 동안구 시민대로 175 119,120,121,122",14048,031-383-1365,08:00~23:00,N,Y,Y,N,Y,N,13268,OPEN,37.3913194,126.950397
341,경기,안양비산,경기 안양시 동안구 관악대로 131,459050,031-447-5151,09:00~23:40,N,Y,Y,N,N,N,11367,OPEN,37.399185,126.93869
342,경기,안양석수,경기 안양시 만안구 안양로 483,13969,031-472-8965,10:00~22:00,N,Y,Y,N,Y,Y,13005,OPEN,37.4125226,126.909447
343,경기,안양역사,경기 안양시 만안구 만안로 232,430814,070-4155-2753,08:00~23:00,N,Y,Y,N,N,Y,11338,OPEN,37.405036,126.92008
344,경기,안양중앙,경기 안양시 만안구 장내로 82,430835,031-468-9383,10:00~23:00,N,Y,Y,N,N,Y,12313,OPEN,37.39469,126.917748
345,경기,안양호계,경기 안양시 동안구 경수대로 561,431841,031-429-8405,09:00~22:00,N,Y,Y,N,Y,Y,12335,OPEN,37.373288,126.958059
346,경기,야탑역,경기 성남시 분당구 성남대로925번길 11,463828,031-701-1521,09:00~23:00,N,Y,Y,N,Y,N,11348,OPEN,37.412025,127.12736
347,경기,양주고읍,경기 양주시 고읍남로2(광사동),482030,031-846-5588,08:00~00:30,N,Y,Y,N,Y,Y,11966,OPEN,37.795964,127.080421
348,경기,양주광적,경기 양주시 광적면 삼일로 11,11419,031-855-0008,10:00~22:00,N,Y,Y,N,Y,N,12783,OPEN,37.820592,126.986293
349,경기,양주덕계,"경기도 양주시 회천중앙로 211,1층",11444,031-862-7700,08:00~23:00,N,Y,Y,N,N,N,13307,CLOSING,37.8169631,127.051149
350,경기,양주덕정,경기 양주시 고암길 306-77,482060,031-859-0204,09:00~23:00,N,Y,Y,N,Y,N,11316,OPEN,37.83671,127.068541
351,경기,양주백석D/T,경기 양주시 백석읍 양주산성로574번길 7 1층 전체,11510,031-872-2085,10:00~22:00,N,Y,Y,N,Y,N,13154,OPEN,37.7874848,126.989769
352,경기,양주옥정,경기 양주시 회천남로 88 101호 (옥정동 M타워),11473,031-857-9097,10:00~21:00,N,Y,Y,N,Y,Y,12784,OPEN,37.818508,127.092762
353,경기,양지오남,경기 남양주시 오남읍 진건오남로 806,472881,031-575-7721,09:30~22:00,N,Y,Y,N,Y,Y,11860,OPEN,37.698614,127.202824
354,경기,양평,경기 양평군 양평읍 역전길3,476805,031-771-7937,09:00~22:00,N,Y,Y,N,Y,Y,11342,OPEN,37.4917877,127.488764
355,경기,양평용문,경기 양평군 용문면 다문리 327-2,476841,031-774-8559,10:00~21:00,N,Y,Y,N,N,N,12537,CLOSING,37.485133,127.594731
356,경기,여주,경기 여주시 세종로 21,469807,031-886-9871,08:00~22:00,N,Y,Y,N,N,Y,11286,OPEN,37.295838,127.63699
357,경기,여주375아울렛,경기 여주시 명품1로 22-5,469803,031-882-9060,09:00~19:30,N,Y,Y,N,Y,Y,12271,CLOSING,37.243498,127.61533
358,경기,여주가남,경기 여주시 가남읍 태평중앙1길 롯데리아,12662,031-883-3346,09:00~22:00,N,Y,Y,N,N,Y,12570,OPEN,37.202561,127.546703
359,경기,여주교동,경기 여주시 세종로 215 A동 101호~103호,12651,031-881-4054,10:00~23:00,N,Y,Y,N,Y,N,13136,OPEN,37.2784048,127.638025
360,경기,여주오학,경기 여주시 도예로 97 하나빌딩 1층,12637,031-8087-7750,09:00~22:00,N,Y,Y,N,Y,N,13135,OPEN,37.3111125,127.64455
361,경기,역곡역,경기 부천시 원미구 부일로 727,420834,032-342-2441,09:00~23:00,N,Y,Y,N,N,N,12017,OPEN,37.48576,126.810634
362,경기,오남어람,경기 남양주시 오남읍 진건오남로 511,12048,031-528-0200,09:30~22:00,N,Y,Y,N,Y,Y,12865,OPEN,37.679703,127.20935
363,경기,오목천,경기 수원시 권선구 삼천병마로1598번길 롯데리아 오목천점,16635,031-295-9991,09:00~22:00,N,Y,Y,N,Y,N,12534,OPEN,37.245805,126.96435
364,경기,오산궐동,경기 오산시 궐리사로 11 (궐동 615-5) 1층,18123,031-378-0999,10:00~22:00,N,Y,Y,N,Y,N,13098,OPEN,37.1604376,127.053834
365,경기,오산세교D/T,경기 오산시 경기대로 859,18111,031-378-3180,24시간,Y,Y,Y,N,Y,Y,12749,OPEN,37.193556,127.043043
366,경기,오산원동,경기 오산시 원동로37번길 37,447804,031-372-0049,10:00~22:00,N,Y,Y,N,N,Y,11390,OPEN,37.145311,127.07033
367,경기,오이도D/I,경기 시흥시 정왕신길로 49번길 53,429450,031-488-9900,10:00~22:00,N,Y,Y,N,Y,N,12122,OPEN,37.362263,126.729599
368,경기,옥정신도시,경기 양주시 옥정동 878-2 1층 일부(104~106호),11468,070-7620-1777,09:00~22:00,N,Y,Y,N,Y,Y,13328,OPEN,37.8333572,127.08792
369,경기,용인강남대,"경기 용인시 기흥구 강남로 13 108호,109호,110호,110호",16977,031-281-1606,09:00~23:00,N,Y,Y,N,Y,Y,13076,OPEN,37.2718327,127.126971
370,경기,용인고림,"경기 용인시 처인구 고림동 784-3 고림동 784-4,786-2",17151,031-321-3224,08:00~22:00,N,Y,Y,N,Y,N,13097,OPEN,37.2396567,127.215026
371,경기,용인남사,경기 용인시 처인구 남사면 한숲로 54 아곡프라자 102호,17117,031-321-0612,09:00~21:00,N,Y,Y,N,Y,Y,12872,OPEN,37.152939,127.171127
372,경기,용인동천,경기 용인시 수지구 수풍로131번길 1,448504,031-896-8004,10:00~22:00,N,Y,Y,N,N,N,12331,OPEN,37.335301,127.093387
373,경기,용인둔전,경기 용인시 포곡읍 포곡로 107번길 2,449812,031-321-1047,09:30~22:00,N,Y,Y,N,N,N,11454,OPEN,37.269528,127.217343
374,경기,용인모현,경기도 용인시 처인구 모현면 외대로 16,17035,031-333-4904,10:00~22:00,N,Y,Y,N,N,Y,12703,OPEN,37.336645,127.251184
375,경기,용인백암,경기 용인시 처인구 백암면 백암로 186번길3,17178,031-334-0070,09:00~21:00,N,Y,Y,N,Y,Y,12814,OPEN,37.1638573,127.376148
376,경기,용인보라,경기 용인시 기흥구 한보라2로 5,446904,031-285-7088,10:00~22:30,N,Y,Y,N,Y,N,12270,OPEN,37.254312,127.109877
377,경기,용인보정,경기 용인시 기흥구 죽전로 39,446858,031-898-0512,10:00~01:00,N,Y,Y,N,Y,N,11432,OPEN,37.320721,127.11312
378,경기,용인상현,"경기 용인시 수지구 상현로 114, 나래빌딩 104-106호",16930,031-261-9193,09:00~24:00,N,Y,Y,N,Y,Y,11405,OPEN,37.305598,127.084793
379,경기,용인송전,"경기 용인시 처인구 이동면 경기동로687번길 22번길, 103,104호",17136,031-339-7800,10:00~21:00,N,Y,Y,N,Y,Y,12876,OPEN,37.141435800000004,127.198181
380,경기,용인시청,경기 용인시 처인구 중부대로 1143 1층(삼가동),17017,031-332-6181,10:00~22:00,N,Y,Y,N,Y,N,12812,OPEN,37.2403205,127.172472
381,경기,용인신갈,경기 용인시 기흥구 신갈로58번길 17 1층,16969,031-275-8803,08:30~22:30,N,Y,Y,N,Y,N,13293,OPEN,37.2725906,127.10758
382,경기,용인신봉,경기 용인시 수지구 수지로 217,448150,031-897-8808,09:00~22:00,N,Y,Y,N,Y,N,12013,OPEN,37.320582,127.084085
383,경기,용인양지,경기 용인시 처인구 양지면 남평로6,449821,031-321-0708,10:00~22:00,N,Y,Y,N,Y,Y,12384,OPEN,37.2324527,127.285807
384,경기,용인역북,경기 용인시 처인구 중부대로 1309,449931,031-322-3800,10:00~22:00,N,Y,Y,N,Y,Y,12219,OPEN,37.236073,127.190542
385,경기,용인죽전1동,경기 용인시 수지구 현암로 154,448808,031-897-6400,10:00~22:00,N,Y,Y,N,Y,Y,12060,OPEN,37.331492,127.126274
386,경기,용인천리,경기 용인시 처인구 이동면 백옥대로 641,17128,031-339-0008,10:00~22:00,N,Y,Y,N,Y,Y,12692,OPEN,37.193939,127.206466
387,경기,용인터미널,"경기 용인시 처인구 중부대로 1486,103호",449924,031-335-2760,07:00~21:00,N,Y,Y,N,N,Y,11276,OPEN,37.2325472,127.210171
388,경기,용인흥덕,경기 용인시 기흥구 흥덕2로 87번길 18,446908,031-211-0766,09:30~22:00,N,Y,Y,N,N,Y,12061,OPEN,37.275575,127.071752
389,경기,운정한빛,경기 파주시 와석순환로 125 (동패동),413100,031-949-7186,09:00~24:00,N,Y,Y,N,Y,Y,12040,OPEN,37.712047,126.745588
390,경기,원당,경기 고양시 덕양구 마상로 154번길 68 (성사동),412807,031-965-8003,08:30~23:00,N,Y,Y,N,N,Y,11253,OPEN,37.656539,126.836962
391,경기,위례역,경기 성남시 수정구 위례광장로 위례광장로 25,13647,031-752-1522,10:00~22:00,N,Y,Y,N,Y,Y,12662,OPEN,37.466021,127.140334
392,경기,의왕부곡,경기 의왕시 부곡중앙남1길 3,437814,031-461-1818,09:00~22:00,N,Y,Y,N,Y,Y,11455,OPEN,37.32073,126.950195
393,경기,의정부가능역점,경기 의정부시 평화로635,480844,031-844-1887,09:30~22:00,N,Y,Y,N,Y,Y,11380,OPEN,37.748725,127.044745
394,경기,의정부고산,경기 의정부시 문충로 116,11801,031-847-7100,10:00~22:00,N,Y,Y,N,Y,Y,13046,OPEN,37.7303651,127.10367
395,경기,의정부낙양,경기 의정부시 용민로 407,11812,031-853-4319,09:00~23:00,N,Y,Y,N,Y,Y,12801,OPEN,37.755688,127.113555
396,경기,의정부녹양역,"경기 의정부시 체육로298-33 CS타워 1,2층",480120,031-829-9204,09:00~22:00,N,Y,Y,N,Y,Y,12275,OPEN,37.759487,127.041001
397,경기,의정부민락,"경기 의정부시 천보로 56 1,2층 (110,204호)(민락동)",11813,031-852-1236,08:00~22:00,N,Y,Y,N,Y,Y,12674,OPEN,37.7448596,127.095237
398,경기,의정부시청,경기 의정부시 의정부2동 490,480012,031-840-2004,10:00~22:00,N,Y,Y,N,Y,Y,12388,OPEN,37.737783,127.037784
399,경기,의정부신곡,경기 의정부시 신곡1동 동일로 462,480830,031-821-1306,09:30~23:00,N,Y,Y,N,N,Y,11861,OPEN,37.72959,127.059676
400,경기,의정부용현,경기 의정부시 충의로 62,480050,031-852-3030,09:00~24:00,N,Y,Y,N,N,Y,11334,OPEN,37.737572,127.087399
401,경기,의정부제일,경기 의정부시 시민로131번길 16,480482,031-856-9191,09:00~03:00,N,Y,Y,N,Y,Y,11399,OPEN,37.738751,127.049886
402,경기,의정부회룡역,경기 의정부시 평화로 374 상가 113~116호 롯데리아회룡역점,11704,031-826-6451,24시간,Y,Y,Y,N,N,Y,13338,OPEN,37.7253276,127.048615
403,경기,이천,경기 이천시 이섭대천로1217번길 26,17369,031-632-7940,24시간,Y,Y,Y,N,N,Y,12984,OPEN,37.2797062,127.44574
404,경기,이천마장,경기 이천시 마장면 오천로 65 1층 103.104.105호,17387,031-634-1777,10:00~22:00,N,Y,Y,N,Y,N,13252,OPEN,37.2518078,127.355663
405,경기,이천송정,경기 이천시 증신로291번길 119-1,17344,031-635-5824,10:00~22:00,N,Y,Y,N,N,N,12980,OPEN,37.2950292,127.434518
406,경기,이천증포,경기 이천시 이섭대천로 1403,467802,031-637-7009,09:00~21:30,N,Y,Y,N,Y,N,12478,OPEN,37.2933,127.454989
407,경기,이천하이닉스,경기 이천시 경충대로 2096-4,17391,031-632-2282,09:00~22:00,N,Y,Y,N,Y,N,12691,OPEN,37.252146,127.490302
408,경기,인덕원역,경기 안양시 동안구 흥안대로 527,13951,031-448-8346,24시간,Y,Y,Y,N,N,N,12671,OPEN,37.401111,126.976091
409,경기,일동,경기 포천시 일동면 화동로 1051번길 4-7,487851,031-536-5596,09:00~22:00,N,Y,Y,N,N,Y,11312,OPEN,37.9576368,127.317301
410,경기,일산가좌,경기 고양시 일산서구 가좌1로53,411440,031-921-0775,09:00~21:30,N,Y,Y,N,Y,Y,12080,OPEN,37.687403,126.718865
411,경기,일산대화,경기 고양시 일산서구 대화로136,411802,031-911-3990,10:00~22:00,N,Y,Y,N,Y,Y,11370,OPEN,37.670358,126.735112
412,경기,일산대화역,경기 고양시 일산서구 대화동 2203-1,411410,031-925-9956,09:00~03:00,N,Y,Y,N,Y,Y,12460,OPEN,37.67618,126.748259
413,경기,일산마두,경기 고양시 일산동구 일산로 239번길,410810,031-904-2356,09:00~23:00,N,Y,Y,N,N,Y,11313,OPEN,37.657338,126.787971
414,경기,일산식사,경기 고양시 일산동구 위시티2로 11번길 45,410821,031-962-3040,10:00~22:00,N,Y,Y,N,Y,Y,12072,OPEN,37.678624,126.812267
415,경기,일산중산,경기 고양시 일산동구 중산로 245번길,410831,031-976-0642,10:00~22:00,N,Y,Y,N,N,Y,11365,OPEN,37.69389,126.780343
416,경기,일산탄현,경기 고양시 일산서구 일현로 47,411320,031-915-1928,10:00~22:00,N,Y,Y,N,Y,Y,11332,OPEN,37.691525,126.762746
417,경기,일산풍동,경기 고양시 일산동구 숲속마을로 48 신성프라자內,410330,031-907-2018,10:00~22:30,N,Y,Y,N,Y,Y,11458,OPEN,37.667458,126.797944
418,경기,일산후곡,경기 고양시 일산서구 일산로 544,411827,031-921-2200,09:00~03:00,N,Y,Y,N,N,Y,11456,OPEN,37.678062,126.7678
419,경기,장현,경기 남양주시 진접읍 장현천로 26,12011,031-528-8885,10:00~22:00,N,Y,Y,N,N,Y,11325,OPEN,37.718679,127.18241
420,경기,장호원,경기 이천시 장호원읍 장감로80,467902,031-641-0411,10:00~22:00,N,Y,Y,N,Y,Y,12051,OPEN,37.117345,127.631567
421,경기,전곡,경기 연천군 전곡읍 온골로 49,486903,031-832-2552,09:30~22:00,N,Y,Y,N,N,Y,11299,OPEN,38.0252,127.068
422,경기,정자역,경기 성남시 분당구 성남대로331번길 11-3,13558,031-715-1335,09:00~22:00,N,Y,Y,N,Y,Y,13077,OPEN,37.3654513,127.106728
423,경기,중동인성,"경기 부천시 원미구 중동 석천로 106 인성프라자1,2층",420844,032-665-1821,08:30~22:30,N,Y,Y,N,N,N,12138,OPEN,37.496725,126.761732
424,경기,지축역,경기 고양시 덕양구 지축1로 롯데리아 지축역,10585,02-371-3300,10:00~22:00,N,Y,Y,N,Y,N,13080,OPEN,37.6487676,126.914573
425,경기,지행역,경기 동두천시 지행로 60,11350,031-858-0900,08:00~23:00,N,Y,Y,N,N,Y,13296,OPEN,37.8920469,127.053792
426,경기,진건,경기 남양주시 진건읍 진건오남로 75  1층,472835,031-527-3977,10:00~21:30,N,Y,Y,N,Y,Y,11388,OPEN,37.657509,127.178003
427,경기,청평D/T,경기 가평군 청평면 청평리 312-9,477815,031-584-9292,09:00~22:00,N,Y,Y,N,Y,N,12524,OPEN,37.740248,127.421097
428,경기,초월역,경기 광주시 초월읍 경충대로 1088 명품 가구 갤러리,12736,031-797-1983,10:00~22:00,N,Y,Y,N,Y,N,13126,OPEN,37.3747046,127.297769
429,경기,퇴계원,경기 남양주시 퇴계원면 퇴계원로 30,472822,031-572-8813,10:00~22:00,N,Y,Y,N,Y,Y,12194,OPEN,37.649423,127.14123
430,경기,파주광탄,경기 파주시 광탄면 혜음로 1128-1,10948,031-942-8830,09:00~22:00,N,Y,Y,N,N,Y,12875,OPEN,37.7819608,126.847226
431,경기,파주교하,경기 파주시 책향기로 419 (동패동),413100,031-949-9427,09:00~22:00,N,Y,Y,N,Y,Y,11394,OPEN,37.724562,126.718153
432,경기,파주당동,경기 파주시 문산읍 방촌로 1719-57,10816,031-954-0033,09:00~23:00,N,Y,Y,N,Y,Y,12641,OPEN,37.8670464,126.784225
433,경기,파주동패,"경기 파주시 숲속노을로 128 1층 101호, 102호, 103호(동패동)",10956,031-946-8856,10:00~23:00,N,Y,Y,N,Y,Y,13157,OPEN,37.712268,126.715134
434,경기,파주법원,경기 파주시 법원읍 술이홀로879번길 13-2,413875,031-958-3323,09:00~22:00,N,Y,Y,N,Y,Y,11360,OPEN,37.8496168,126.872639
435,경기,파주야당역,경기 파주시 경의로 1092,10908,031-957-7575,09:00~02:00,N,Y,Y,N,Y,Y,12888,OPEN,37.714896,126.760094
436,경기,파주운정,경기 파주시 미래로 622,413190,031-957-8854,10:00~22:00,N,Y,Y,N,Y,Y,11986,OPEN,37.732728,126.750909
437,경기,파주운정역,경기 파주시 경의로 1246 1층,10896,031-944-1177,10:00~22:00,N,Y,Y,N,Y,Y,13091,OPEN,37.7286333,126.761205
438,경기,파주운정해오름,경기 파주시 다율동 120-2 신성프라자,00000,031-941-7775,09:00~22:00,N,Y,Y,N,Y,N,13155,OPEN,37.7383874,126.730576
439,경기,파주적성,경기 파주시 적성면 마지리 46-8,413913,031-959-5466,08:00~22:00,N,Y,Y,N,N,N,12466,OPEN,37.954575,126.918641
440,경기,판교D/T,경기 성남시 분당구 동판교로 42,13535,031-8016-3015,10:00~22:00,N,Y,Y,N,N,N,12932,OPEN,37.38775,127.113426
441,경기,평내,경기 남양주시 경춘로1256번길 34,12225,031-592-0067,10:00~22:00,N,Y,Y,N,Y,Y,12763,OPEN,37.644573,127.236806
442,경기,평촌귀인,경기 안양시 동안구 평촌대로 139,431827,031-382-8210,09:00~24:00,N,Y,Y,N,Y,Y,11443,OPEN,37.384438,126.958845
443,경기,평택고덕에듀,경기 평택시 고덕로 247 DS에듀타워 103~106호,18020,031-667-0808,09:00~24:00,N,Y,Y,N,N,Y,13169,OPEN,37.0365773,127.027639
444,경기,평택동삭,경기 평택시 지제동삭2로 181-24,18029,031-658-1303,09:00~22:00,N,Y,Y,N,Y,Y,13062,OPEN,37.0160993,127.093232
445,경기,평택비전,경기 평택시 비전동 1012,450150,031-657-1303,09:00~23:00,N,Y,Y,N,Y,Y,12496,OPEN,37.004364,127.103721
446,경기,평택서정,"경기 평택시 정암로 32,1동",17783,031-663-1378,08:00~02:30,N,Y,Y,N,N,N,12968,OPEN,37.0567,127.057
447,경기,평택세교,경기 평택시 세교로 5,17827,031-653-4977,10:00~20:00,N,Y,Y,N,Y,Y,12848,OPEN,37.001144,127.078304
448,경기,평택송탄,경기 평택시 서정동 특구로 24,459010,031-665-0072,09:00~23:30,N,Y,Y,N,N,Y,11977,OPEN,37.067531,127.063452
449,경기,평택시청,경기 평택시 평택5로20번길 35 1층 (합정동),17902,031-656-8900,09:00~22:30,N,Y,Y,N,N,Y,13104,OPEN,36.9896896,127.113251
450,경기,평택안중,경기 평택시 안중읍 안중로 109-2,451884,031-681-8588,09:00~00:30,N,Y,Y,N,N,Y,11314,OPEN,36.988881,126.928632
451,경기,평택안중D/I,경기 평택시 안중읍 안현로서9길 5,17930,031-684-9588,09:00~24:00,N,Y,Y,N,N,N,12700,OPEN,36.976943,126.923383
452,경기,평택중앙,경기 평택시 평택2로 10번길 10-3,450826,031-658-5281,24시간,Y,Y,Y,N,N,Y,11064,OPEN,36.991892,127.088231
453,경기,평택지산,경기 평택시 지산로 76,459110,031-664-1123,10:00~22:00,N,Y,Y,N,Y,Y,12469,OPEN,37.079957,127.063176
454,경기,평택진위D/T,경기 평택시 진위면 경기대로 1929,17705,031-611-4874,09:00~22:00,N,N,Y,N,Y,Y,12800,OPEN,37.1163802,127.06375
455,경기,평택청북,경기 평택시 청북면 안청로 340,17808,031-681-5990,10:00~21:30,N,Y,Y,N,Y,Y,12705,OPEN,37.0182935,126.915644
456,경기,평택청북D/T,경기 평택시 청북면 서해로 1540,17799,031-682-9999,10:00~21:00,N,Y,Y,N,Y,Y,12660,OPEN,37.029682,126.941125
457,경기,평택팽성,경기 평택시 팽성읍 동서촌로97,451801,031-652-1900,09:00~23:00,N,Y,Y,N,N,Y,11431,OPEN,36.964586,127.063083
458,경기,평택포승,경기 평택시 포승읍 여술2길 15,17955,031-684-9747,10:00~22:00,N,Y,Y,N,Y,N,12941,OPEN,36.9867,126.846
459,경기,포일IT,경기 의왕시 포일세거리로 10,16004,031-422-8886,10:00~23:00,N,Y,Y,N,Y,N,12714,CLOSING,37.396101,126.985618
460,경기,포천,경기 포천시 중앙로 115,487803,031-532-0021,10:00~22:00,N,Y,Y,N,N,Y,11277,OPEN,37.896668,127.202475
461,경기,포천송우,경기 포천시 소흘읍 송우로 53,487823,031-541-8288,10:00~22:00,N,Y,Y,N,Y,Y,12062,OPEN,37.828643,127.143105
462,경기,포천운천,경기 포천시 영북면 운천안길 26,487892,031-533-8000,10:00~22:00,N,Y,Y,N,N,Y,12137,CLOSING,38.089654,127.273889
463,경기,하남감일,"경기 하남시 감이동 511-3 1층 105,106,107(감이동)",13003,02-471-1003,10:00~22:00,N,Y,Y,N,N,N,13206,OPEN,37.5074796,127.15426
464,경기,하남덕풍,경기 하남시 신장로 147,465804,031-795-8877,09:30~23:00,N,Y,Y,N,N,Y,11272,OPEN,37.539029,127.20212
465,경기,하남신장,경기 하남시 대청로73,465809,031-794-2023,09:00~23:00,N,Y,Y,N,N,Y,11329,OPEN,37.540694,127.220712
466,경기,하남풍산,"경기 하남시 덕풍동로 111-50,1층 롯데리아",12927,031-796-0096,09:00~22:00,N,Y,Y,N,Y,Y,12365,OPEN,37.55204814015346,127.20845766194502
467,경기,향남2신도시,경기 화성시 향남읍 발안로 발안양감로,18592,031-354-5512,09:00~23:30,N,Y,Y,N,Y,N,12788,OPEN,37.115717,126.913101
468,경기,호평,경기 남양주시 늘을2로 14번길 3,472120,031-559-6367,09:00~22:30,N,Y,Y,N,Y,Y,11397,OPEN,37.654108,127.244114
469,경기,홈플러스동수원,경기도 수원시 팔달구 효원로 257 홈플러스동수원점,16490,031-231-8040,10:00~21:30,N,Y,Y,N,Y,Y,11337,OPEN,37.262723,127.030106
470,경기,홈플러스북수원,경기 수원시 장안구 경수대로 930,16295,031-241-6452,10:00~21:30,N,Y,Y,N,Y,N,12972,OPEN,37.3027325,127.008398
471,경기,홈플러스시화,경기 시흥시 희망공원로 269,429450,031-498-6620,10:00~22:00,N,Y,Y,N,N,Y,11366,OPEN,37.345283,126.725099
472,경기,홈플러스오산세교,경기 오산시 청학로 238,447290,031-374-7005,10:00~21:30,N,Y,Y,N,Y,N,12300,OPEN,37.170166,127.061514
473,경기,홈플러스파주운정,경기 파주시 청암로 17번길 17,10871,031-941-8843,10:00~22:00,N,Y,Y,N,Y,Y,12753,OPEN,37.729421,126.736778
474,경기,화성기안,경기 화성시 효행로287.보보스프라자106,445310,031-224-9711,09:00~23:00,N,Y,Y,N,Y,Y,11402,OPEN,37.222758,126.974809
475,경기,화성남양,경기 화성시 남양읍 남양시장로 66번길 9-17,18261,031-366-8989,09:00~22:00,N,Y,Y,N,Y,Y,11319,OPEN,37.2093699,126.81832
476,경기,화성동탄,경기 화성시 동탄문화센터로 71-3,18455,031-8003-4545,10:00~21:30,N,Y,Y,N,Y,Y,11408,OPEN,37.1996868,127.072086
477,경기,화성반월,경기 화성시 영통로27번길 1,18384,031-202-4810,09:00~22:00,N,Y,Y,N,Y,N,12711,OPEN,37.232933,127.063727
478,경기,화성발안,경기 화성시 향남읍 삼천병마로 207,18593,031-352-9382,09:00~23:00,N,Y,Y,N,Y,Y,11368,OPEN,37.13232,126.908337
479,경기,화성봉담,경기 화성시 봉담읍 동화길 85,445893,031-278-8181,09:00~23:00,N,Y,Y,N,Y,Y,11413,OPEN,37.216945,126.958342
480,경기,화성봉담2지구,경기 화성시 봉담읍 상리2길 55 1동 1층,18309,031-292-2927,09:00~22:00,N,Y,Y,N,N,Y,13063,OPEN,37.2251949,126.946869
481,경기,화성비봉,경기 화성시 비봉면 양노로 78-5,18284,031-355-7259,10:00~21:00,N,Y,Y,N,Y,N,12922,OPEN,37.235592,126.870641
482,경기,화성사강D/T,경기 화성시 송산면 사강리 736-4,445874,031-357-4723,09:00~22:00,N,Y,Y,N,Y,Y,12279,OPEN,37.2123311,126.731769
483,경기,화성센트럴파크,경기 화성시 동탄지성로 116,445160,031-8003-8856,10:00~24:00,N,Y,Y,N,Y,Y,11857,OPEN,37.20898,127.062855
484,경기,화성조암,경기 화성시 우정읍 쌍봉로 76,18566,031-351-3189,09:00~21:00,N,Y,Y,N,N,Y,12418,OPEN,37.08311,126.818179
485,경기,화성태안,경기 화성시 병점1로 221,445390,031-267-0067,07:00~02:00,N,Y,Y,N,Y,Y,11377,OPEN,37.213577,127.041816
486,경기,화성향남,경기 화성시 향남읍 발안로 107,445926,031-354-9947,10:00~23:00,N,Y,Y,N,Y,Y,11430,OPEN,37.131864,126.922302
487,경기,화성화산D/T,경기 화성시 안녕동 37-89,445380,031-232-5353,09:00~22:00,N,Y,Y,N,Y,N,12573,OPEN,37.203059,127.013317
488,경기,화정역,"경기 고양시 덕양구 화신로260번길 현창빌딩 101,102,103호",10500,031-971-0637,24시간,Y,Y,Y,N,N,Y,13065,OPEN,37.6330556,126.832478
489,경기,DMC향동,경기 고양시 덕양구 꽃마을로 45,10545,02-3159-9992,10:00~22:00,N,Y,Y,N,Y,N,13016,OPEN,37.6018623,126.892635
490,부산,구서,부산 금정구 구서로 3-1,609800,051-515-9494,09:00~22:00,N,Y,Y,N,N,Y,11211,OPEN,35.246464,129.090543
491,부산,구포,부산 북구 낙동대로 1698,616801,051-338-5888,24시간,Y,Y,Y,N,N,Y,11215,OPEN,35.206195,128.996816
492,부산,기장일광,부산 기장군 일광읍 삼성리 828-2 103~105호,46048,051-723-9002,10:00~22:00,N,Y,Y,N,N,N,13125,OPEN,35.2656583,129.225648
493,부산,동래허심청,부산 동래구 온천장로107번길 32 허심청 1층,47709,051-556-0399,08:00~22:30,N,Y,Y,N,N,N,13313,OPEN,35.2211633,129.082698
494,부산,롯데마트동래,부산 동래구 중앙대로 1393,47727,051-668-2780,10:00~22:00,N,Y,Y,N,Y,N,12881,OPEN,35.211719,129.07753
495,부산,문현,부산 남구 수영로 15,608824,051-645-4647,07:30~24:00,N,Y,Y,N,N,Y,11210,OPEN,35.137242,129.069915
496,부산,부산감천,부산 사하구 감천로 27-1,604806,051-203-5070,10:00~22:00,N,Y,Y,N,Y,N,12267,OPEN,35.091374,128.995231
497,부산,부산개금,"부산광역시 부산진구 가야대로 497 111호,112호,113호",47269,070-8211-3389,08:00~03:00,N,Y,Y,N,Y,N,13207,OPEN,35.1537446,129.026577
498,부산,부산거제,부산 연제구 아시아드대로 80,611803,051-506-0134,09:00~23:00,N,Y,Y,N,N,Y,12217,OPEN,35.191798,129.067815
499,부산,부산경성대,부산 남구 수영로 300,608805,051-621-6855,08:30~04:00,N,Y,Y,N,N,Y,11243,OPEN,35.136668,129.099239
500,부산,부산광안역,부산 수영구 수영로 581,48255,051-753-3838,09:00~22:00,N,Y,Y,N,Y,N,12807,OPEN,35.157657,129.112921
501,부산,부산괴정,부산 사하구 괴정동 970-2,604080,051-292-4200,09:00~23:00,N,Y,Y,N,N,N,12447,OPEN,35.100177,128.993135
502,부산,부산기장,"부산 기장군 기장읍 읍내로 114 1층, 2층",46065,051-991-4940,09:00~22:00,N,Y,Y,N,N,N,13204,OPEN,35.2449129,129.216909
503,부산,부산남산정역,부산 북구 만덕3로 21,46562,051-334-1602,09:00~24:00,N,Y,Y,N,N,N,12805,OPEN,35.212523,129.027165
504,부산,부산남포,부산 중구 비프광장로 15,600805,051-241-2881,09:00~24:00,N,Y,Y,N,N,Y,12458,OPEN,35.098723,129.027152
505,부산,부산다대포,부산 사하구 다대로 698,604827,051-263-5952,10:00~22:00,N,Y,Y,N,N,N,12463,OPEN,35.048674,128.965321
506,부산,부산당감,"부산 부산진구 동평로 83, 1층",47145,051-898-1003,08:00~03:00,N,Y,Y,N,N,N,13303,OPEN,35.1656089,129.038636
507,부산,부산대,부산 금정구 부산대학로 39 1층,46291,051-515-5153,10:00~22:00,N,Y,Y,N,N,Y,13186,OPEN,35.2310647,129.087014
508,부산,부산대신,부산 서구 구덕로 340번길 4,602813,051-246-0325,09:00~22:00,N,Y,Y,N,N,Y,11218,OPEN,35.114005,129.016071
509,부산,부산대연,부산 남구 수영로 200,608813,051-625-1747,08:00~02:00,N,Y,Y,N,N,Y,11230,OPEN,35.134692,129.088444
510,부산,부산덕천,부산 북구 만덕대로 16번길 19 1층 (덕천동),46576,051-338-2777,09:00~01:00,N,Y,Y,N,N,N,13164,OPEN,35.2096841,129.007367
511,부산,부산동래역,부산 동래구 중앙대로 1319,607837,051-554-7771,09:00~24:00,N,Y,Y,N,N,N,11852,OPEN,35.205037,129.077639
512,부산,부산동아대,부산 사하구 낙동대로550번길 1,49315,051-326-4632,10:00~24:00,N,Y,Y,N,N,N,13007,OPEN,35.1132258,128.96429
513,부산,부산망미,부산 수영구 연수로 278,613825,051-758-9852,09:30~22:30,N,Y,Y,N,Y,Y,12512,OPEN,35.172892,129.101259
514,부산,부산명지,부산 강서구 명지오션시티11로 74,618814,051-294-4500,09:00~22:00,N,Y,Y,N,Y,Y,12115,OPEN,35.083795,128.903916
515,부산,부산명지국제신도시,부산 강서구 명지국제8로 233,46726,051-203-4952,09:00~22:00,N,Y,Y,N,Y,N,12726,OPEN,35.098255,128.917808
516,부산,부산물만골역,부산 연제구 월드컵대로 12,611825,051-851-9990,09:00~24:00,N,Y,Y,N,N,Y,12503,OPEN,35.175851,129.086531
517,부산,부산미남역,부산 동래구 아시아드대로 234 오피스텔동 1층,47837,051-505-5030,09:00~24:00,N,Y,Y,N,N,Y,12124,OPEN,35.2045891,129.068627
518,부산,부산반송,부산 해운대구 아랫반송로26번길 9 1층 (반송동),48018,051-542-0006,09:30~22:00,N,Y,Y,N,N,N,11854,OPEN,35.2248176,129.148452
519,부산,부산반여,부산 해운대구 재반로 209,612814,051-783-8200,09:00~22:00,N,Y,Y,N,N,N,11220,OPEN,35.19592,129.130603
520,부산,부산범어사역,부산 금정구 중앙대로 2103,609813,051-512-2422,09:00~22:00,N,Y,Y,N,N,N,12030,OPEN,35.272069,129.092358
521,부산,부산비프광장,부산 중구 구덕로 58-1,600045,051-241-0128,24시간,Y,Y,Y,N,N,N,11051,OPEN,35.098225,129.029346
522,부산,부산사상,부산 사상구 사상로 211,46963,051-313-7700,24시간,Y,Y,Y,N,N,Y,11060,OPEN,35.163975,128.983397
523,부산,부산서동,부산 금정구 서동로 159-7,46320,051-532-1477,10:00~24:00,N,Y,Y,N,N,Y,12869,CLOSING,35.215111,129.104123
524,부산,부산송도,부산 서구 암남동 334-11,602030,051-243-2227,09:30~23:00,N,Y,Y,N,Y,N,12604,OPEN,35.076978,129.016318
525,부산,부산신모라,부산 사상구 모라로 110번길 3,617820,051-315-7000,10:00~22:00,N,Y,Y,N,N,Y,12340,OPEN,35.185855,128.991865
526,부산,부산신호,부산 강서구 신호산단2로27번길 3,46759,051-831-9452,09:00~22:00,N,Y,Y,N,Y,N,12670,OPEN,35.085549,128.877898
527,부산,부산안락,부산 동래구 안락로 134,47794,051-523-5200,24시간,Y,Y,Y,N,N,Y,11224,OPEN,35.198871,129.111431
528,부산,부산안민,부산 동래구 안연로 80 리연빌딩1층,47894,051-868-0785,09:00~23:00,N,Y,Y,N,Y,N,13123,OPEN,35.1943342,129.09848
529,부산,부산양정,부산 부산진구 양정1동 중앙대로 901-1,614856,051-861-3900,10:00~24:00,N,Y,Y,N,N,Y,11200,OPEN,35.170973,129.069282
530,부산,부산역,부산 동구 중앙대로 201(초량동),48816,051-466-7070,24시간,Y,Y,Y,N,N,Y,11058,OPEN,35.115372,129.039375
531,부산,부산연산,부산 연제구 반송로8,611822,051-867-3166,24시간,Y,Y,Y,N,N,Y,11203,OPEN,35.18642,129.082466
532,부산,부산연지,부산 부산진구 새싹로 170,47132,051-803-3009,24시간,Y,Y,Y,N,Y,Y,12850,OPEN,35.171365,129.049948
533,부산,부산온천장역,부산 동래구 금강공원로 5,47711,051-556-6996,09:00~24:00,N,Y,Y,N,N,N,13066,OPEN,35.2181718,129.08373
534,부산,부산용호,부산 남구 용호로 136-1,48528,051-628-2155,08:00~24:00,N,Y,Y,N,N,Y,11206,OPEN,35.119419,129.11261
535,부산,부산용호메트로시티,부산 남구 분포로 61 A동 105호~108호,48515,070-7706-7625,10:00~01:00,N,Y,Y,N,N,N,13334,OPEN,35.1314098,129.112331
536,부산,부산장림,부산 사하구 장평로 145번길 77,604845,051-263-3323,09:00~21:00,N,Y,Y,N,N,Y,11213,OPEN,35.080456,128.968691
537,부산,부산재송,부산 해운대구 재반로 86,48053,051-781-0142,10:00~22:30,N,Y,Y,N,Y,N,12693,OPEN,35.186394,129.125733
538,부산,부산전포,부산 부산진구 전포대로200번길 17,47304,051-804-0045,08:00~23:30,N,Y,Y,N,N,Y,12771,OPEN,35.154873,129.066564
539,부산,부산정관,부산 기장군 정관면 정관로 560,619963,051-727-9817,09:00~23:00,N,Y,Y,N,Y,N,11851,OPEN,35.32135,129.175093
540,부산,부산주례역,부산 사상구 주례동 198-3,617010,051-314-2900,09:00~01:00,N,Y,Y,N,Y,Y,11227,OPEN,35.150401,129.005155
541,부산,부산진역,부산 동구 중앙대로 377,601812,051-469-9339,09:00~22:00,N,Y,Y,N,N,Y,11204,OPEN,35.129151,129.048768
542,부산,부산토곡,부산 연제구 연산동 480-16,611080,051-751-5030,09:00~24:00,N,Y,Y,N,N,N,12407,OPEN,35.183566,129.107366
543,부산,부산하단,부산 사하구 낙동대로 457,49408,051-294-2480,24시간,Y,Y,Y,N,N,Y,12304,OPEN,35.105449,128.968785
544,부산,부산학장,부산 사상구 학장동 574-100,617020,051-314-7550,10:00~22:00,N,Y,Y,N,Y,N,12494,OPEN,35.140182,128.982638
545,부산,부산해운대좌동,부산 해운대구 좌동순환로 74,48083,051-731-9996,09:00~02:00,N,Y,Y,N,N,N,12697,OPEN,35.172888,129.167456
546,부산,부산화명,부산 북구 화명신도시로 127,46524,051-333-4777,24시간,Y,Y,Y,N,N,N,12179,CLOSING,35.235341,129.010635
547,부산,서면일번가,부산 부산진구 서면로 46,47286,051-817-0005,24시간,Y,Y,Y,N,N,Y,12396,OPEN,35.15496,129.058054
548,부산,센텀프라자빌딩,부산 해운대구 우동 1078-1,612020,051-747-0325,09:00~22:00,N,Y,Y,N,Y,Y,12551,OPEN,35.167838,129.140725
549,부산,수영로타리,부산 수영구 수영로 710-1,613800,051-759-0670,09:00~24:00,N,Y,Y,N,N,N,12016,OPEN,35.167777,129.117237
550,부산,신평탑마트,부산 사하구 하신중앙로 210,604834,051-291-6065,09:30~21:30,N,Y,Y,N,Y,Y,11219,OPEN,35.0971654264022,128.96189993063
551,부산,영도남항,부산 영도구 영선대로 83,606042,051-417-5030,09:00~22:00,N,Y,Y,N,N,N,11214,OPEN,35.088365,129.042052
552,부산,영도동삼,부산 영도구 동삼로 25,606080,051-405-0878,09:00~23:00,N,Y,Y,N,N,N,11212,OPEN,35.076032,129.071773
553,부산,키즈마트부산,부산 진구 신천대로 241,614837,051-816-2881,10:00~22:00,N,Y,Y,N,Y,Y,12079,OPEN,35.163277,129.049308
554,부산,탑마트신다대,부산 사하구 다송로 58,604822,051-266-1300,09:30~22:00,N,Y,Y,N,Y,Y,11221,OPEN,35.062483,128.982897
555,부산,하나로부산,부산 북구 금곡대로 469,616841,051-365-2228,11:00~21:00,N,Y,Y,N,Y,N,12359,OPEN,35.250026,129.011255
556,부산,해운대백병원,부산 해운대구 해운대로 875,48108,051-704-8148,07:00~20:30,N,Y,Y,N,N,N,12792,OPEN,35.173537,129.182215
557,부산,A.G선수촌,부산 해운대구 선수촌로 109-1,612811,051-528-8900,09:00~22:00,N,Y,Y,N,N,N,11231,CLOSING,35.203637,129.119586
558,대구,궁전라벤더,대구 동구 아양로 52,701815,053-955-4326,10:00~22:00,N,Y,Y,N,Y,Y,11752,OPEN,35.881697,128.619929
559,대구,대구가창D/T,대구 달성군 가창면 가창로 1075,42936,053-767-4846,09:00~22:00,N,Y,Y,N,Y,N,12715,OPEN,35.8003261,128.622615
560,대구,대구감삼,대구 서구 달구벌대로 1669,703805,053-521-2777,09:00~01:00,N,Y,Y,N,Y,Y,11688,OPEN,35.854818,128.548515
561,대구,대구계명,대구 남구 현충로 250,705819,053-625-5456,10:00~02:30,N,Y,Y,N,Y,Y,11711,OPEN,35.854713,128.58328
562,대구,대구고산,대구 수성구 달구벌대로 수성구 달구벌대로 3100,42252,053-791-4847,09:00~22:00,N,Y,Y,N,N,N,13073,OPEN,35.8426223,128.695989
563,대구,대구구지,"대구 달성군 구지면 과학마을로 45 1층, 전체",43008,053-611-3386,10:00~22:00,N,Y,Y,N,N,Y,13137,OPEN,35.6559718,128.4182
564,대구,대구금호사수,대구 북구 내곡로 34,41599,053-312-5009,09:00~22:30,N,Y,Y,N,Y,N,12740,OPEN,35.8986588,128.509855
565,대구,대구내당,대구 달서구 두류동 101-15 1층,42660,053-657-1223,10:00~22:00,N,Y,Y,N,N,N,13348,OPEN,35.859226,128.562704
566,대구,대구논공,대구 달성군 논공읍 논공로 741,711854,053-616-7474,08:00~22:00,N,N,Y,N,Y,Y,11768,OPEN,35.7292487,128.446862
567,대구,대구다사,대구 달성군 다사읍 달구벌대로 874,42918,053-588-6767,09:00~23:00,N,Y,Y,N,N,Y,11771,OPEN,35.857661,128.464696
568,대구,대구대곡,대구 달서구 도원로 30,704803,053-631-3210,10:00~22:00,N,Y,Y,N,N,Y,11715,OPEN,35.807498,128.535375
569,대구,대구대곡역,대구 달성군 화원읍 비슬로 2723,711831,053-641-1900,10:00~22:00,N,Y,Y,N,Y,Y,12308,OPEN,35.80995,128.512778
570,대구,대구도남,"대구광역시 북구 도남중앙로7길 2 101호, 102호, 103호",41408,070-7809-9080,10:00~23:00,N,Y,Y,N,Y,Y,13214,OPEN,35.9520264,128.583185
571,대구,대구동서변,대구 북구 호국로 219,702894,053-952-5113,10:00~23:30,N,Y,Y,N,N,Y,11787,OPEN,35.921342,128.598803
572,대구,대구동성로,대구 중구 동성로 39,41937,053-600-1100,24시간,Y,Y,Y,N,N,N,11967,OPEN,35.870458,128.595322
573,대구,대구동호D/T,대구 동구 안심로 288,701849,053-965-8955,09:00~23:30,N,Y,Y,N,Y,Y,12128,OPEN,35.865722,128.716228
574,대구,대구만촌,대구 수성구 달구벌대로 대구 수성구 달구벌대로 2616,42068,053-743-7484,10:00~22:00,N,Y,Y,N,N,Y,11693,OPEN,35.8575236,128.648287
575,대구,대구방촌,대구 동구 화랑로 409,701804,053-981-9700,10:00~23:00,N,Y,Y,N,Y,Y,11773,OPEN,35.876874,128.668841
576,대구,대구복현,대구 북구 검단로 8,702833,053-383-3651,10:00~01:30,N,Y,Y,N,Y,Y,11701,OPEN,35.897938,128.615597
577,대구,대구사월역,대구 수성구 달구벌대로 3280,706959,053-792-3111,09:00~22:00,N,Y,Y,N,N,Y,11835,OPEN,35.836913,128.714731
578,대구,대구삼덕,대구 중구 동덕로 125,41940,053-253-2299,09:00~01:00,N,Y,Y,N,N,Y,12949,OPEN,35.8658853,128.603037
579,대구,대구상인,대구 달서구 월배로 250,42808,053-642-0825,08:00~23:00,N,Y,Y,N,N,Y,11687,OPEN,35.8190786,128.54039
580,대구,대구서부정류장,대구 달서구 구마로 260,704820,053-623-1200,10:00~01:30,N,Y,Y,N,N,Y,11838,OPEN,35.837153,128.556336
581,대구,대구서성네거리,대구 중구 서성로 33,41932,053-427-4847,09:00~22:00,N,Y,Y,N,N,N,12934,OPEN,35.869704,128.587018
582,대구,대구서재,대구 달성군 다사읍 서재본길 4-1,42923,053-591-8222,10:00~22:00,N,Y,Y,N,Y,Y,11837,OPEN,35.872193,128.49659
583,대구,대구성당D/T,대구 달서구 구마로 209,42681,053-656-9801,24시간,Y,Y,Y,N,Y,Y,13054,OPEN,35.8375373,128.550663
584,대구,대구세천,대구 달성군 다사읍 세천남로 1581-6,42930,053-582-0116,09:00~22:00,N,Y,Y,N,Y,N,12718,OPEN,35.874361,128.476398
585,대구,대구수성구청,대구 수성구 범어로 89,42087,053-744-6678,10:30~22:00,N,Y,Y,N,Y,Y,11840,OPEN,35.8574708,128.635656
586,대구,대구스타디움,대구 수성구 유니버시아드로 140,706130,053-222-6222,10:30~21:00,N,Y,Y,N,Y,Y,12111,OPEN,35.8306656,128.688863
587,대구,대구신당,대구 달서구 계대동문로 24-1,704922,053-591-2222,10:00~22:00,N,Y,Y,N,N,Y,11738,OPEN,35.855318,128.494959
588,대구,대구신암,대구 동구 신암로 102-1,701818,053-952-4326,10:00~23:00,N,Y,Y,N,N,Y,11689,OPEN,35.879758,128.610976
589,대구,대구신월성,"대구 달서구 조암로 9 1층 107,108호",42758,053-710-8887,10:00~24:00,N,Y,Y,N,N,N,13298,OPEN,35.8253897,128.528849
590,대구,대구아양교,대구 동구 아양로 240,701841,053-955-5216,10:00~22:30,N,Y,Y,N,N,Y,11831,OPEN,35.886689,128.639374
591,대구,대구안지랑,대구 남구 대명로 160-2,705805,053-629-8484,09:00~24:00,N,Y,Y,N,N,N,11767,OPEN,35.838903,128.574978
592,대구,대구연경,대구 동구 동화천로 70길 39,41003,053-314-2000,09:30~23:00,N,Y,Y,N,Y,Y,13001,OPEN,35.9424949,128.630158
593,대구,대구옥포,대구 달성군 옥포면 돌미상업로 6,42974,053-614-4422,10:00~22:00,N,Y,Y,N,N,N,12954,OPEN,35.781631,128.442601
594,대구,대구용산,대구 달서구 평리로 50,704936,053-521-6633,09:00~23:00,N,Y,Y,N,N,Y,11725,OPEN,35.858281,128.530268
595,대구,대구월드컵대로,대구 수성구 유니버시아드로 338(욱수동 121),706180,053-793-4846,09:00~22:00,N,Y,Y,N,Y,Y,12547,OPEN,35.829053,128.707261
596,대구,대구율하중앙,대구 동구 안심로22길 40-5,41106,053-961-7474,09:00~22:00,N,Y,Y,N,Y,N,12659,OPEN,35.863455,128.694837
597,대구,대구이시아폴리스,대구 동구 봉무동 1551 1동 104호,41026,053-259-7145,10:00~22:00,N,Y,Y,N,Y,Y,13274,OPEN,35.9212781,128.639748
598,대구,대구장기,대구 달서구 장기로 264,42687,053-635-6060,10:00~22:00,N,Y,Y,N,Y,Y,13014,OPEN,35.8438192,128.531604
599,대구,대구중동,대구 수성구 명덕로 384 1층,42131,053-767-4849,10:00~22:00,N,Y,Y,N,Y,N,13190,OPEN,35.854336,128.612224
600,대구,대구지산,대구 수성구 지범로 201,706813,053-783-6291,09:00~22:00,N,Y,Y,N,Y,Y,11700,OPEN,35.82051433,128.641176973
601,대구,대구청구네거리,대구 수성구 범어동 1109,706010,053-751-4847,10:00~22:00,N,Y,Y,N,N,N,12433,OPEN,35.867591,128.61859
602,대구,대구칠곡구암,대구 북구 학정로 440,702807,053-323-8585,09:00~02:00,N,Y,Y,N,N,Y,11782,OPEN,35.943739,128.564245
603,대구,대구칠곡매천,대구 북구 학정로 40,702866,053-324-9955,09:00~24:00,N,Y,Y,N,Y,Y,11799,OPEN,35.913271,128.547171
604,대구,대구칠곡운암,대구 북구 구암동 649-2 1층 상가,41463,053-721-8961,10:00~24:00,N,Y,Y,N,N,N,13278,OPEN,35.9315921,128.556031
605,대구,대구침산,대구 북구 침산로 170-1,41560,053-351-9166,10:00~24:00,N,Y,Y,N,N,N,13006,OPEN,35.8914132,128.59024
606,대구,대구퀸스로드,대구 서구 평리로35길 18-8,703832,053-287-2828,10:00~22:00,N,Y,Y,N,Y,Y,11780,OPEN,35.861404,128.544314
607,대구,대구평리,대구 서구 국채보상로 246,703846,053-566-8100,10:00~22:00,N,Y,Y,N,N,Y,11731,OPEN,35.870707,128.557825
608,대구,대구화원,대구 달성군 화원읍 사문진로 446 1,711835,053-644-6900,09:00~22:00,N,Y,Y,N,N,Y,11734,OPEN,35.8035393,128.497113
609,대구,대구황금네거리,대구 수성구 청수로 117,42149,053-768-4847,09:00~01:00,N,Y,Y,N,Y,Y,12933,OPEN,35.8405,128.621
610,대구,대구효목,대구 수성구 화랑로 116,706803,053-744-1758,09:00~23:00,N,Y,Y,N,Y,Y,11699,OPEN,35.872964,128.639659
611,대구,동대구,대구 동구 동부로 30길 7(신세계백화점 맞은편),701828,053-755-5561,09:00~02:00,N,Y,Y,N,N,Y,11691,OPEN,35.8764193,128.629191
612,대구,명덕네거리,대구 중구 남산동 2110-8,700440,053-431-2204,08:30~23:00,N,Y,Y,N,Y,Y,12515,OPEN,35.857267,128.590012
613,대구,북비산,대구 서구 달서로 182,41794,053-556-5454,10:00~24:00,N,Y,Y,N,N,Y,11740,OPEN,35.879339,128.571942
614,대구,영대병원,대구 남구 대명로 313,705801,053-655-3300,10:00~03:00,N,Y,Y,N,N,Y,11722,OPEN,35.845252,128.589872
615,대구,팔달시장,대구 북구 팔달로 145,702816,053-351-5864,10:00~22:00,N,Y,Y,N,Y,Y,11720,CLOSING,35.889478,128.565971
616,대구,현풍테크노폴리스,대구 달성군 현풍읍 테크노대로 61 롯데리아 현풍테크노폴리스,43017,053-611-8810,10:00~22:00,N,Y,Y,N,Y,Y,12677,OPEN,35.6895593,128.453723
617,대구,홈플러스칠곡,대구 북구 동암로12길 8,41422,053-324-9990,10:00~22:00,N,N,Y,N,Y,N,12963,OPEN,35.9448667,128.555958
618,인천,검단신도시,"인천 서구 이음대로 388 제1층 제106호 ~ 제108호(원당동, 검단에이비엠타워) 3개",22866,032-267-4483,07:00~01:00,N,Y,Y,N,Y,N,13145,OPEN,37.5930541,126.712681
619,인천,공항신도시,"인천 중구 영종대로 106, 1층 101호,102호",22371,032-747-0054,09:00~23:00,N,Y,Y,N,N,Y,12041,OPEN,37.4948436,126.490879
620,인천,구월아시아드,인천 남동구 인하로 563,21581,032-465-1602,09:00~24:00,N,Y,Y,N,N,Y,12650,OPEN,37.44301,126.709552
621,인천,동암남부,인천 부평구 동암남로 5,403849,032-441-3900,10:00~23:00,N,Y,Y,N,N,Y,11336,OPEN,37.471092,126.704118
622,인천,동인천역전,인천 중구 참외전로 122(인현동),400180,032-762-5700,09:30~22:30,N,Y,Y,N,N,Y,11333,OPEN,37.475352,126.630901
623,인천,롯데마인천삼산B1,인천 부평구 길주로623-0,403090,032-363-2030,10:00~22:00,N,Y,Y,N,Y,Y,11406,OPEN,37.507885,126.732043
624,인천,롯데마트부평,인천 부평구 마장로 296,21362,032-362-1568,10:00~21:00,N,N,Y,N,Y,N,13059,OPEN,37.5049699,126.704086
625,인천,부평,인천 부평구 경원대로 1399,403821,032-501-1088,24시간,Y,Y,Y,N,N,N,12086,OPEN,37.491585,126.724664
626,인천,부평시장역,인천 부평구 부평동 202-1 1층,21390,032-362-0207,08:00~02:00,N,Y,Y,N,Y,Y,13170,OPEN,37.4977895,126.722763
627,인천,송도달빛공원,인천 연수구 송도동 29-1번지(아트센터대로 169번길 100),406840,032-858-9028,10:00~23:00,N,Y,Y,N,Y,Y,13040,OPEN,37.405485,126.629122
628,인천,송도랜드마크시티,인천 연수구 랜드마크로 68,22018,032-851-1400,10:00~22:00,N,Y,Y,N,Y,N,13030,CLOSING,37.4155182,126.619369
629,인천,송도센트럴파크,"인천 연수구 센트럴로 160, 130호",406840,032-858-6600,09:00~22:00,N,Y,Y,N,Y,Y,12408,OPEN,37.3925744,126.644013
630,인천,신검단중앙역,"인천 서구 고산후로 222 1층 112~114호 (불로동,푸리마더타워)",22888,032-715-7325,10:00~22:00,N,Y,Y,N,Y,Y,13355,OPEN,37.603477,126.698913
631,인천,인천가정,인천 서구 염곡로498번길 18,22731,032-569-5535,10:00~22:00,N,Y,Y,N,Y,Y,12882,OPEN,37.527896,126.670018
632,인천,인천가좌,인천 서구 원적로 85,404809,032-574-4998,10:00~22:00,N,Y,Y,N,Y,Y,11403,OPEN,37.494603,126.681372
633,인천,인천간석,인천 남동구 석산로 11 1층 일부호(간석동),21506,032-432-3200,09:30~01:30,N,Y,Y,N,N,N,11453,OPEN,37.463852,126.694969
634,인천,인천갈산,인천 부평구 평천로 324,403801,032-527-0853,09:00~22:00,N,Y,Y,N,N,Y,12259,OPEN,37.517547,126.726276
635,인천,인천강화,인천 강화군 강화읍 강화대로 419,417807,032-934-1233,09:00~21:30,N,Y,Y,N,N,Y,11322,OPEN,37.747657,126.484197
636,인천,인천검단,인천 서구 왕길동 639-4,404290,032-569-0047,09:00~23:30,N,Y,Y,N,Y,Y,12390,OPEN,37.6019043,126.656558
637,인천,인천검암,인천 서구 승학로 505,404844,032-566-7009,09:00~01:00,N,Y,Y,N,N,N,11459,OPEN,37.565531,126.675778
638,인천,인천검암한들,"인천 서구 한중로 12 1층(102,103호),2층(202호)",22687,032-721-4066,10:00~22:00,N,Y,Y,N,N,Y,13339,OPEN,37.577973,126.67381
639,인천,인천계산,인천 계양구 경명대로 1049(계산동),407850,032-543-3300,09:00~01:00,N,Y,Y,N,Y,Y,11256,OPEN,37.543895,126.723435
640,인천,인천계양,인천 계양구 용종로 2 계산프라자 1층,407813,032-541-2580,09:00~22:00,N,Y,Y,N,Y,Y,11283,OPEN,37.534096,126.741414
641,인천,인천구월,인천 남동구 구월로 270,405839,032-468-2785,08:00~23:00,N,Y,Y,N,N,N,11289,OPEN,37.4555632,126.720523
642,인천,인천남동공단,인천 남동구 논현로 40 1층,405825,032-431-3305,09:00~23:00,N,Y,Y,N,Y,N,11446,OPEN,37.402057,126.711051
643,인천,인천남동구청,인천 남동구 장승남로 54,405868,032-461-5417,09:00~23:30,N,Y,Y,N,N,N,11309,OPEN,37.443176,126.738293
644,인천,인천논현,인천 남동구 논고개로123번길17,405825,032-429-6866,09:00~23:00,N,Y,Y,N,Y,Y,11426,OPEN,37.401724,126.722928
645,인천,인천당하,인천 서구 완정로 18,404820,032-564-8062,09:00~22:00,N,Y,Y,N,Y,Y,11372,OPEN,37.5951819,126.671977
646,인천,인천도화,인천 미추홀구 숙골로 100,22114,032-868-7911,10:00~22:00,N,Y,Y,N,N,N,12890,OPEN,37.471233,126.662853
647,인천,인천동양,인천 계양구 동양로111,407340,032-546-9266,09:00~22:00,N,Y,Y,N,Y,Y,12282,OPEN,37.559033,126.757244
648,인천,인천동춘,인천 연수구 앵고개로 246번길 33,406802,032-816-2772,09:00~22:00,N,Y,Y,N,N,Y,12372,OPEN,37.407229,126.670833
649,인천,인천루원시티,"인천 서구 서곶로 50 루원시티 대성베르힐 더 센트로 상가 E103,104호",22776,070-4035-2085,10:00~22:00,N,Y,Y,N,Y,Y,13271,OPEN,37.5228736,126.677803
650,인천,인천만수,인천 남동구 만수로47 만수메디칼 빌딩105호,405856,032-463-3111,08:00~23:00,N,Y,Y,N,N,N,11398,OPEN,37.460643,126.733568
651,인천,인천백운,인천 부평구 경원대로1240번길,403839,032-519-9300,09:00~23:00,N,Y,Y,N,N,Y,11273,OPEN,37.487301,126.708595
652,인천,인천병방,인천 계양구 장제로 907,407320,032-554-0400,09:00~01:00,N,Y,Y,N,N,Y,11291,OPEN,37.547649,126.740515
653,인천,인천부개,인천 부평구 길주남로 155,403815,032-362-1515,09:00~23:00,N,Y,Y,N,N,Y,11296,OPEN,37.503955,126.739005
654,인천,인천부개역,인천 부평구 경인로 1080,403100,032-330-7042,09:00~23:00,N,Y,Y,N,N,Y,12236,OPEN,37.486122,126.739708
655,인천,인천불로,인천 서구 검단로 779 1층,22620,032-567-6600,10:00~22:00,N,Y,Y,N,N,Y,12409,OPEN,37.6146812,126.685925
656,인천,인천서구,인천 서구 가정로 361,22782,032-578-5968,09:00~22:00,N,Y,Y,N,N,Y,12773,OPEN,37.517664,126.673134
657,인천,인천서창,인천 남동구 서창동 인천광역시 남동구 서창남순환로 2,405260,032-463-0272,09:00~22:40,N,Y,Y,N,Y,Y,12464,OPEN,37.42449,126.750265
658,인천,인천석남,"인천 서구 거북로 87, 1층",404827,032-579-8060,09:00~22:00,N,Y,Y,N,N,N,11395,OPEN,37.503362,126.671619
659,인천,인천석바위,인천 미추홀구 경원대로 848,22144,032-432-7555,09:00~22:00,N,Y,Y,N,N,Y,12235,OPEN,37.458404,126.689819
660,인천,인천소래포구역,인천 남동구 소래역로 50. 1층 101호 102호,429834,032-434-6288,10:00~22:00,N,Y,Y,N,Y,Y,12356,OPEN,37.401545,126.734212
661,인천,인천송도,인천 연수구 신송로 122,406840,032-858-1777,09:00~23:00,N,Y,Y,N,Y,Y,11436,OPEN,37.395874,126.652464
662,인천,인천시티오씨엘,인천 미추홀구 학익로80번길 11 B101 ~105호,22194,032-874-1003,09:00~22:00,N,Y,Y,N,N,N,13344,OPEN,37.440224,126.646394
663,인천,인천신기,인천 미추홀구 인하로 287,22227,032-435-3388,09:00~23:00,N,Y,Y,N,N,N,11279,OPEN,37.448213,126.67997
664,인천,인천연수,인천 연수구 샘말로 55,21929,032-815-7888,09:00~22:00,N,Y,Y,N,N,Y,11307,OPEN,37.41374,126.679492
665,인천,인천연희D/T,인천 서구 서곶로 289,404833,032-561-1695,24시간,Y,Y,Y,N,Y,N,11077,OPEN,37.543298,126.676488
666,인천,인천영종하늘도시,인천 중구 하늘중앙로195번길 하늘중앙로 195번길 14,22377,032-746-7772,09:00~22:00,N,Y,Y,N,N,N,12504,CLOSING,37.489329,126.5608
667,인천,인천옥련,인천 연수구 독배로 40번길,406824,032-834-2900,09:00~22:00,N,Y,Y,N,N,Y,11295,OPEN,37.424625,126.647053
668,인천,인천올리브,인천 남동구 남동대로 880,405803,032-439-3400,10:00~23:00,N,Y,Y,N,Y,Y,11439,OPEN,37.4609409,126.70885
669,인천,인천왕길역,인천 서구 봉화로 49,22652,032-568-0122,09:00~21:00,N,Y,Y,N,Y,Y,13027,OPEN,37.5976743,126.637124
670,인천,인천용현,인천 미추홀구 낙섬중로 42,22187,032-886-1215,09:00~23:00,N,Y,Y,N,N,Y,11331,OPEN,37.451805,126.637839
671,인천,인천원당,인천 서구 당하동 원당대로876,404310,032-568-8064,09:00~23:00,N,Y,Y,N,Y,Y,11379,OPEN,37.593133,126.698812
672,인천,인천작전,인천 계양구 안남로 548,407041,032-541-5005,09:00~01:00,N,Y,Y,N,Y,Y,11327,OPEN,37.531891,126.711164
673,인천,인천청라,인천 서구 인천 서구 청라에메랄드로99,404180,032-623-4467,09:00~22:00,N,Y,Y,N,Y,N,12120,OPEN,37.5336883,126.655714
674,인천,인천청라호수공원,인천 서구 솔빛로 88,404170,032-563-9400,09:00~22:00,N,Y,Y,N,N,N,12452,OPEN,37.525554,126.630692
675,인천,인천청천,인천 부평구 마장로 396,430030,032-528-0852,08:00~01:00,N,Y,Y,N,N,Y,11345,OPEN,37.5133224,126.704178
676,인천,인천학산,인천 미추홀구 한나루로 389,22202,032-873-4264,09:00~23:00,N,Y,Y,N,N,N,12636,OPEN,37.442655,126.663662
677,인천,인천학익,인천 미추홀구 매소홀로 466,22223,032-873-4115,09:00~23:00,N,Y,Y,N,N,Y,11317,OPEN,37.439349,126.673577
678,인천,인천허브D/I,인천 중구 영종대로 283,400340,032-752-3646,08:30~22:00,N,Y,Y,N,Y,N,12285,OPEN,37.485641,126.505155
679,인천,제물포,인천 미추홀구 경인로 124,22164,032-882-7919,09:30~22:30,N,Y,Y,N,N,Y,11271,OPEN,37.465968,126.656593
680,인천,주안,인천 미추홀구 주안로 86,22136,032-868-9512,09:30~22:00,N,N,Y,N,N,Y,13070,CLOSING,37.4643893,126.680148
681,인천,주안고려,인천 미추홀구 미추홀대로 743,22136,032-435-2221,09:00~23:30,N,Y,Y,N,N,Y,11292,OPEN,37.463684,126.680021
682,인천,홈플러스송도,인천 연수구 송도국제대로 -,21999,032-814-0815,10:00~21:30,N,Y,Y,N,Y,N,12639,OPEN,37.3802,126.656337
683,인천,홈플러스인천가좌,인천 서구 가정로 151번길 11,404809,032-576-4222,10:00~21:40,N,Y,Y,N,Y,Y,12243,OPEN,37.497576,126.67069
684,인천,홈플러스인천숭의,인천 미추홀구 석정로 51,22160,032-886-9563,10:00~22:00,N,Y,Y,N,Y,Y,12256,OPEN,37.4651,126.64346
685,인천,홈플러스인천청라,인천 서구 중봉대로 587,404187,032-562-0042,10:00~21:00,N,Y,Y,N,Y,Y,12345,OPEN,37.5322976,126.64862
686,광주,광주금남로,광주 광역시 동구 서석로51,501021,062-232-9700,09:00~24:00,N,Y,Y,N,N,Y,11602,OPEN,35.147231,126.918675
687,광주,광주금호,광주 서구 금화로 89  (금호동),502806,062-383-8802,08:00~24:00,N,Y,Y,N,N,Y,11625,OPEN,35.132635,126.85841
688,광주,광주농성,광주 서구 죽봉대로 15 롯데리아 광주농성,61978,062-365-5949,24시간,Y,Y,Y,N,Y,Y,12550,OPEN,35.154606,126.883127
689,광주,광주동강대,광주 북구 동문대로 69,500850,062-224-4339,09:00~22:00,N,Y,Y,N,N,Y,12130,OPEN,35.170688,126.921693
690,광주,광주동림,광주 광역시 서구 동천동626,502882,062-514-2140,09:00~22:00,N,Y,Y,N,N,Y,11676,OPEN,35.171443,126.868735
691,광주,광주두암,광주 북구 갈마로 53,500814,062-229-8000,09:00~24:00,N,Y,Y,N,Y,Y,11983,OPEN,35.162041,126.93636
692,광주,광주문흥,광주 북구 서하로 384,61133,062-266-5253,09:00~22:00,N,Y,Y,N,Y,N,11650,OPEN,35.1851144,126.92195
693,광주,광주백운,광주 남구 독립로 100-1,61645,062-654-1200,09:00~23:00,N,Y,Y,N,N,Y,12678,OPEN,35.142603,126.903132
694,광주,광주봉선,광주 남구 봉선 중앙로82(봉선동),503813,062-653-6577,09:00~22:00,N,Y,Y,N,N,Y,11614,OPEN,35.128211,126.911274
695,광주,광주상무,"광주 서구 상무중앙로 95,1층 101호,102호",502827,062-382-1236,08:00~03:00,N,Y,Y,N,Y,Y,11664,OPEN,35.1555238,126.84781
696,광주,광주선운,광주 광산구 선암동 569,506100,062-944-9696,09:00~22:00,N,Y,Y,N,Y,N,12590,OPEN,35.147346,126.777886
697,광주,광주소촌,광주 광산구 소촌동 752-31 752-31번지,00000,062-941-2538,09:00~22:00,N,Y,Y,N,Y,N,13134,OPEN,35.1568471,126.792459
698,광주,광주송정,광주 광산구 송정로 1번길88,506805,062-944-0058,09:00~22:00,N,Y,Y,N,N,Y,11639,OPEN,35.139948,126.795532
699,광주,광주수완,광주 광산구 임방울대로 338,506304,062-956-0203,24시간,Y,Y,Y,N,N,N,11984,OPEN,35.190046,126.824305
700,광주,광주신용,광주 북구 첨단연신로91번길 6,500832,062-573-1762,09:00~01:00,N,Y,Y,N,N,Y,12485,OPEN,35.206513,126.863637
701,광주,광주신창,광주 광산구 신창로 116(신창동),506841,062-959-0550,08:30~03:00,N,Y,Y,N,Y,Y,11648,OPEN,35.195375,126.838443
702,광주,광주양산,광주 북구 임방울대로 1068  (용두동),500220,062-576-5353,09:00~23:00,N,Y,Y,N,Y,Y,12004,OPEN,35.211133,126.873636
703,광주,광주염주,광주 서구 염화로 93 -,62037,062-375-6677,09:00~23:30,N,Y,Y,N,N,Y,11615,OPEN,35.142816,126.874818
704,광주,광주오치,광주 북구 설죽로 328,500839,062-269-5250,09:00~23:00,N,Y,Y,N,Y,Y,11626,OPEN,35.188698,126.899321
705,광주,광주용봉,광주 북구 비엔날레로 112,500845,062-522-0289,09:00~23:00,N,Y,Y,N,N,Y,11629,OPEN,35.181662,126.890364
706,광주,광주운남,광주 광산구 하남대로 282,506818,062-953-3433,09:00~22:00,N,Y,Y,N,Y,N,11622,OPEN,35.178803,126.824473
707,광주,광주운리,광주 서구 풍암운리로 8,62051,062-652-5225,09:00~23:00,N,Y,Y,N,N,N,12958,OPEN,35.1223385,126.865085
708,광주,광주운암DI,광주 북구 북문대로 177(운암동),500860,062-523-0708,07:30~03:00,N,Y,Y,N,Y,Y,12273,OPEN,35.184042,126.870758
709,광주,광주운천,광주 서구 상무민주로5번길 21 1층 107-1호 108호 108-1호,61965,062-385-5055,09:00~24:00,N,Y,Y,N,Y,N,12965,OPEN,35.1506219,126.856346
710,광주,광주일곡,"광주 북구 설죽로 499, 1층 (일곡동)",61040,062-575-3131,09:00~01:30,N,Y,Y,N,N,Y,11618,OPEN,35.2036912,126.89808
711,광주,광주임동,"광주 북구 서림로 153 상가건물 102호,103호",61246,062-224-8210,09:00~22:00,N,Y,Y,N,Y,Y,13161,OPEN,35.1597357,126.902054
712,광주,광주장덕,"광주 광산구 장덕로 55, 1,2층 (장덕동)",62220,062-955-9991,08:00~03:00,N,Y,Y,N,N,Y,13146,OPEN,35.1951015,126.815277
713,광주,광주주월,광주 남구 서문대로 753,61722,062-653-3357,08:00~02:00,N,Y,Y,N,Y,N,13012,OPEN,35.126616,126.897454
714,광주,광주진월,광주 남구 서문대로 662,503840,062-651-6300,08:00~02:00,N,Y,Y,N,N,Y,11632,CLOSING,35.118391,126.899155
715,광주,광주첨단,광주 광산구 첨단중앙로 152,62274,062-972-7221,09:00~23:00,N,Y,Y,N,Y,Y,12920,OPEN,35.218799,126.84238
716,광주,광주충장,광주 동구 충장로 77-7,501013,062-227-2266,09:00~02:00,N,Y,Y,N,N,Y,11612,OPEN,35.148771,126.916114
717,광주,광주풍암,광주 서구 풍암2로 10,502833,062-365-6655,09:00~24:00,N,Y,Y,N,Y,Y,11849,OPEN,35.126711,126.879686
718,광주,광주하남,광주 광산구 사암로 251(상가107),506776,062-951-0020,09:00~23:00,N,Y,Y,N,Y,Y,11631,OPEN,35.166983,126.807709
719,광주,광주하남2지구,광주 광산구 용아로379번길 54,62335,062-954-9200,09:00~24:00,N,Y,Y,N,Y,Y,12799,OPEN,35.176755,126.800777
720,광주,광주학동,광주 동구 남문로 682 (학동),501847,062-234-0001,09:00~24:00,N,Y,Y,N,Y,Y,11672,OPEN,35.131634,126.92924
721,광주,광주효천,광주 남구 효천로 51,61754,062-456-8088,09:00~23:00,N,Y,Y,N,N,N,12990,OPEN,35.0998208,126.871736
722,광주,롯데마트광주수완,광주 광산구 장신로 98,506251,062-975-2866,11:00~21:00,N,Y,Y,N,Y,Y,11673,OPEN,35.190225,126.820967
723,광주,롯데마트첨단,광주 광산구 첨단 강변로99번길22(쌍암동),506303,062-971-0853,10:00~21:00,N,Y,Y,N,Y,Y,11640,OPEN,35.216536,126.8519
724,광주,전남대,광주 북구 우치로 112 1층 (용봉동),500843,062-268-3388,09:00~02:30,N,Y,Y,N,Y,Y,12150,OPEN,35.177463,126.912577
725,광주,하나로마트광주수완,광주 광산구 임방울대로 261,62307,062-531-6355,09:30~21:30,N,N,Y,N,Y,N,12716,OPEN,35.1851202,126.818989
726,광주,홈플러스광주하남,광주 광산구 용아로 390,62331,062-955-5333,10:00~21:30,N,Y,Y,N,Y,Y,12921,OPEN,35.1779423,126.805436
727,광주,홈플러스동광주,광주 북구 동문대로 200,61165,062-266-3338,10:00~21:10,N,Y,Y,N,Y,Y,12959,OPEN,35.1795,126.93
728,대전,대전가수원,대전 서구 계백로 1161,302802,042-546-7778,09:00~22:30,N,Y,Y,N,Y,N,12321,OPEN,36.305243,127.352421
729,대전,대전가양D/T,대전 대덕구 동서대로 1772(비래동),306829,042-624-4666,08:00~23:00,N,Y,Y,N,Y,Y,12292,OPEN,36.3538257,127.444219
730,대전,대전가오,대전 동구 은어송로60 103호,300050,042-285-8296,07:20~23:30,N,Y,Y,N,Y,Y,11580,OPEN,36.306193,127.45612
731,대전,대전가장,대전 서구 가장로106(롯데리아),302726,042-368-7000,09:00~23:00,N,Y,Y,N,Y,Y,11549,OPEN,36.333481,127.384153
732,대전,대전갈마,대전 서구 갈마로64,302807,042-526-5889,09:00~23:00,N,Y,Y,N,Y,Y,11527,OPEN,36.34666,127.369205
733,대전,대전관저,대전광역시 서구 관저중로 98 1층,35378,042-542-8944,09:00~24:00,N,Y,Y,N,N,N,13191,OPEN,36.300902,127.335415
734,대전,대전관평,대전 유성구 관평동 840,305509,042-936-1047,09:30~22:30,N,Y,Y,N,Y,N,12392,OPEN,36.425204,127.388306
735,대전,대전노은,대전 유성구 은구비남로33번길 47-8,34086,042-476-0358,09:00~23:00,N,Y,Y,N,N,Y,11532,OPEN,36.3745639,127.318881
736,대전,대전대동,대전 동구 계족로 174 (대동),300808,042-628-5500,24시간,Y,Y,Y,N,N,N,12343,OPEN,36.329343,127.443429
737,대전,대전대사,대전 중구 계룡로920번길 36,34964,042-242-2013,08:00~24:00,N,Y,Y,N,Y,Y,12323,OPEN,36.3187302,127.415157
738,대전,대전도마,대전 서구 계백로 1435,302820,042-535-7942,09:00~22:00,N,Y,Y,N,N,Y,11509,OPEN,36.31353,127.380518
739,대전,대전도안,대전 유성구 월드컵대로300번길 16-16 지상 1층(상대동),34198,042-826-9339,08:00~22:00,N,Y,Y,N,N,N,13081,OPEN,36.3480416,127.332464
740,대전,대전동부,대전 동구 동서대로1695번길 30,300824,042-628-1479,10:00~24:00,N,Y,Y,N,Y,N,11497,OPEN,36.351447,127.437528
741,대전,대전목원대,대전 서구 도안북로93번길 7,35350,042-484-3398,09:00~22:00,N,Y,Y,N,N,N,13035,OPEN,36.3303885,127.338615
742,대전,대전반석,대전 유성구 반석로 9,305150,042-824-3636,09:00~22:00,N,Y,Y,N,Y,Y,11569,OPEN,36.391523,127.313585
743,대전,대전배재,대전 서구 배재로 176,302819,042-526-8208,10:00~22:00,N,Y,Y,N,N,Y,11864,OPEN,36.324251,127.370529
744,대전,대전버드내,대전 중구 태평로 30,301835,042-535-8491,09:00~24:00,N,Y,Y,N,Y,Y,11496,OPEN,36.319458,127.392664
745,대전,대전복수,대전 서구 복수동로 62번지 1층,302210,042-584-8777,09:00~22:00,N,Y,Y,N,N,N,12288,OPEN,36.298758,127.37824
746,대전,대전비래,대전 대덕구 비래동로 13,34417,042-623-4545,09:00~23:00,N,Y,Y,N,Y,Y,11552,OPEN,36.355168,127.449987
747,대전,대전산내낭월,대전 동구 산내로 1341 1층 롯데리아,34703,042-285-2366,09:00~23:00,N,Y,Y,N,N,Y,13107,OPEN,36.2831346,127.466437
748,대전,대전산성,대전 중구 보문산로 45-1,34989,042-586-0985,09:30~22:30,N,Y,Y,N,N,N,12761,OPEN,36.304799,127.385745
749,대전,대전성남,대전 동구 성남동 155-1 101호 102호,34591,042-624-0964,09:00~22:00,N,Y,Y,N,N,N,13284,OPEN,36.3406033,127.435033
750,대전,대전송강,대전 유성구 구즉로58번길 31-12,34009,042-936-8989,09:00~23:00,N,Y,Y,N,Y,Y,11535,OPEN,36.4342629,127.387219
751,대전,대전송촌,대전 대덕구 동춘당로 94번길 11-7,306813,042-638-3333,09:00~24:00,N,Y,Y,N,Y,Y,11539,OPEN,36.365871,127.439672
752,대전,대전시청,대전 서구 문정로 70 제이엔에스빌딩 1층,302859,042-476-5663,10:00~23:00,N,Y,Y,N,Y,Y,12008,OPEN,36.346445,127.387017
753,대전,대전신성,대전시 유성구 신성남로 45(신성동),305805,042-867-7777,09:00~23:00,N,Y,Y,N,Y,Y,11550,OPEN,36.386539,127.350013
754,대전,대전오정,대전 대덕구 한밭대로 1019 A동 1층(오정동),34379,042-627-2223,09:30~22:00,N,Y,Y,N,N,N,13078,OPEN,36.3587089,127.411736
755,대전,대전용산,"대전 유성구 배울1로 126,1층101~103호(용산동,호반써밋프라자2)",34040,042-934-8967,09:00~22:00,N,Y,Y,N,N,N,13203,OPEN,36.4166071,127.393409
756,대전,대전용운,대전 동구 용운동 307-11,300120,042-286-8903,09:30~23:00,N,Y,Y,N,N,Y,12533,OPEN,36.327984,127.458763
757,대전,대전월평,대전 서구 월평동 912 1층,302280,042-486-1100,10:00~24:00,N,Y,Y,N,N,N,12572,OPEN,36.355969,127.363056
758,대전,대전유성,대전 유성구 계룡로 58,34169,042-822-9358,24시간,Y,Y,Y,N,N,N,12210,OPEN,36.354772,127.337291
759,대전,대전전민,대전 유성구 유성대로 1746-1,305810,042-864-6500,09:00~22:00,N,Y,Y,N,N,N,11578,OPEN,36.399375,127.403317
760,대전,대전정림,대전 서구 정림로 71 1층,302855,042-585-8006,09:00~22:00,N,Y,Y,N,N,Y,12204,OPEN,36.306549,127.364725
761,대전,대전죽동,대전 유성구 죽동로279번길 16,34127,042-823-1459,09:30~23:00,N,Y,Y,N,Y,N,12777,OPEN,36.370506,127.338393
762,대전,대전중동,대전시 동구 중앙로 189-1(중동),300160,042-256-9696,09:00~21:00,N,Y,Y,N,N,Y,11508,OPEN,36.330548,127.430278
763,대전,대전중앙,대전 중구 중앙로139,301822,042-256-1357,09:00~23:00,N,Y,Y,N,Y,Y,11490,OPEN,36.328607,127.42502
764,대전,대전중촌,대전 중구 목중로 22 1층 롯데리,301841,042-222-6446,09:00~22:00,N,Y,Y,N,Y,Y,11544,OPEN,36.336092,127.411561
765,대전,대전타임월드,대전 서구 둔지로 17(둔산동),302828,010-4482-5226,09:00~23:00,N,Y,Y,N,N,Y,11513,OPEN,36.3514728,127.37596
766,대전,대전터미널,대전 동구 동서대로 1679,34552,042-634-1233,09:00~22:00,N,Y,Y,N,N,Y,12375,OPEN,36.3492955,127.436128
767,대전,대전한밭대,대전 유성구 덕명동 592-1,305320,042-826-9213,09:00~22:00,N,Y,Y,N,N,N,12454,OPEN,36.34873,127.296964
768,대전,대전효동,대전 동구 효동 135-18 1층,34636,042-285-2024,07:30~24:00,N,Y,Y,N,N,N,13127,OPEN,36.3181568,127.441957
769,대전,둔산선사,대전 서구 청사서로 42,302280,042-484-7900,09:00~23:00,N,Y,Y,N,N,N,11500,OPEN,36.3615449,127.376921
770,대전,롯데마트서대전,대전 유성구 유성대로 26-37롯데마트(서대전점) 2층 롯데리아,305808,042-544-2234,10:00~21:00,N,Y,Y,N,Y,N,11563,OPEN,36.300702,127.324556
771,대전,신탄진,대전시 대덕구 신탄진로818-1,306815,042-931-7011,09:00~22:00,N,Y,Y,N,N,Y,11516,OPEN,36.450471,127.429214
772,대전,충남대,대전 유성구 궁동로 18번길 6,305335,042-825-1456,10:00~23:00,N,Y,Y,N,N,Y,11985,OPEN,36.362679,127.34766
773,대전,한남대,대전 대덕구 한남로 28,306819,042-639-2445,09:30~23:00,N,Y,Y,N,N,Y,12180,OPEN,36.351359,127.425171
774,대전,홈플러스유성,"대전시 유성구 한밭대로 502 , 101",305301,042-825-6227,10:00~22:00,N,Y,Y,N,Y,Y,12225,OPEN,36.358239,127.354328
775,울산,롯데마트울산,울산 남구 삼산로 74 롯데마트 울산점 롯데리아,44722,052-271-7845,09:30~23:00,N,Y,Y,N,N,N,13336,OPEN,35.5336041,129.315798
776,울산,메가마트언양,울산 울주군 삼남면 반구대로 612,689812,052-264-0707,09:30~21:00,N,Y,Y,N,Y,Y,11982,OPEN,35.547586,129.117241
777,울산,언양,울산 울주군 언양읍 읍성로 27,44945,052-262-5444,09:00~22:00,N,Y,Y,N,Y,Y,11702,OPEN,35.5667591,129.117495
778,울산,울산구영,울산 울주군 범서읍 점촌3길 10-10 1,44924,052-248-2419,10:00~22:00,N,Y,Y,N,Y,N,11811,OPEN,35.574422,129.240279
779,울산,울산남목,"울산 동구 방어진순환도로 1133, 102호",682807,052-235-0053,09:30~22:00,N,Y,Y,N,Y,N,12069,OPEN,35.539305,129.424792
780,울산,울산대학,울산 남구 대학로84번길 7-1,44611,052-277-3020,10:00~24:00,N,Y,Y,N,N,Y,11696,OPEN,35.542962,129.26009
781,울산,울산매곡,울산 북구 매곡2로 39,44215,052-294-7452,09:00~22:00,N,Y,Y,N,Y,N,12973,OPEN,35.6484639,129.354224
782,울산,울산명촌,울산 북구 명촌로 45,44254,052-225-7350,10:00~22:00,N,Y,Y,N,Y,N,12669,OPEN,35.556687,129.356842
783,울산,울산반구,울산 중구 염포로 8,44500,052-258-3636,10:00~22:00,N,Y,Y,N,Y,Y,12635,OPEN,35.5585999,129.342827
784,울산,울산방어,울산 동구 꽃바위로 266,682829,052-252-7445,09:30~23:00,N,Y,Y,N,Y,N,12233,OPEN,35.483261,129.418382
785,울산,울산범서,울산 울주군 범서읍 천상길 29,689855,052-211-5938,10:00~22:00,N,Y,Y,N,Y,Y,11748,OPEN,35.562888,129.227557
786,울산,울산삼산,울산 남구 삼산로277번길 6-15 1층,44705,052-260-3633,09:00~22:00,N,Y,Y,N,N,N,13288,OPEN,35.5402929,129.338061
787,울산,울산삼호,울산 남구 북부순환도로 39 1층(무거동),44629,052-222-8899,10:00~22:00,N,Y,Y,N,N,N,13310,OPEN,35.5524198,129.267825
788,울산,울산성안,울산 중구 성안로 195,681300,052-245-3005,10:00~22:00,N,Y,Y,N,Y,Y,12474,OPEN,35.57758,129.31781
789,울산,울산세이브존,울산 남구 번영로 250번길 9,680731,052-266-2998,09:30~23:30,N,Y,Y,N,Y,N,12135,OPEN,35.54789,129.324736
790,울산,울산송정,울산 북구 화산로 109,44236,052-292-2800,10:00~22:00,N,Y,Y,N,Y,N,12970,OPEN,35.6019681,129.366299
791,울산,울산신정,"울산 남구 돋질로 3 201동 1층 112,113,114호",44673,052-716-7271,09:00~02:00,N,Y,Y,N,N,N,13323,OPEN,35.5370501,129.306659
792,울산,울산염포,울산 북구 염포로 653 1층,44260,052-287-2578,09:00~22:00,N,Y,Y,N,N,N,13187,OPEN,35.5339687,129.390404
793,울산,울산옥동타워,울산 남구 문수로 339,44664,052-266-8755,10:00~22:00,N,Y,Y,N,Y,Y,12696,OPEN,35.534793,129.290086
794,울산,울산온산,울산 울주군 온산읍 덕신리 270-8,689894,052-239-4471,09:00~22:00,N,Y,Y,N,Y,N,11762,OPEN,35.433725,129.308948
795,울산,울산온양,울산 을주군 온양읍 대운길 37,689903,052-238-0068,09:30~22:00,N,Y,Y,N,Y,N,11866,OPEN,35.4131653,129.281363
796,울산,울산우정,울산 중구 유곡로 20,44465,052-211-6699,09:00~23:00,N,Y,Y,N,N,N,12768,OPEN,35.556662,129.307342
797,울산,울산전하,울산 동구 전하동 동구 진성14길 77,682060,010-9896-5264,09:00~22:00,N,Y,Y,N,N,Y,12376,OPEN,35.508835,129.425425
798,울산,울산정자해변,울산 북구 화암길 3,44264,052-282-8877,09:00~22:00,N,Y,Y,N,Y,Y,12780,OPEN,35.632305,129.440442
799,울산,울산청량,울산 울주군 청량읍 상남리 708-1 1층,44985,052-260-7305,10:00~22:00,N,Y,Y,N,N,N,13275,OPEN,35.4872224,129.304717
800,울산,울산터미널,울산 남구 화합로 133,680815,052-227-2922,24시간,Y,Y,Y,N,N,Y,11100,OPEN,35.536527,129.33848
801,울산,울산호계,울산 북구 호계로 302,683812,052-282-0901,10:00~22:00,N,Y,Y,N,Y,Y,11772,CLOSING,35.630193,129.351429
802,울산,울산화봉,울산 북구 화봉로 74,683805,052-283-2220,10:00~22:00,N,Y,Y,N,Y,N,12188,OPEN,35.5879,129.367128
803,울산,울산화정,울산 동구 대학길 65,682821,052-236-3811,09:30~22:30,N,Y,Y,N,Y,Y,11776,CLOSING,35.498924,129.42145
804,울산,홈플러스울산,울산 중구 번영로 475,681809,052-294-0700,10:00~22:00,N,Y,Y,N,Y,Y,11754,OPEN,35.564433,129.334672
805,세종,세종고운,세종  마음안1로 137,30062,044-868-7769,10:00~22:00,N,Y,Y,N,N,Y,12951,OPEN,36.5206636,127.235172
806,세종,세종반곡,세종  한누리대로 1824,30145,044-555-3265,09:00~22:00,N,Y,Y,N,Y,N,13018,OPEN,36.4984439,127.312867
807,세종,세종보람디엠시티,세종  한누리대로 2165,30151,044-868-4826,09:00~22:30,N,Y,Y,N,N,N,12952,OPEN,36.477,127.287
808,세종,세종부강,세종  부강면 부강로 42,30075,044-868-2371,10:00~22:00,N,Y,Y,N,N,N,12637,OPEN,36.5297338,127.366176
809,세종,세종산울,"세종특별자치시 산울동 141 6-3생활권H3블록빗돌마을6단지,근린생활A112 A113 A11",00000,044-864-0727,09:00~22:00,N,Y,Y,N,Y,Y,13265,OPEN,36.5295818,127.262723
810,세종,세종새롬,"세종  새롬중앙로 67 1층, 108호, 109호, 110호, 111호",30126,044-863-8115,10:00~22:00,N,Y,Y,N,Y,N,13079,OPEN,36.4868851,127.250225
811,세종,세종소담,세종  한누리대로 2009,30130,044-867-7771,09:00~22:00,N,Y,Y,N,N,N,12947,CLOSING,36.4848,127.301
812,세종,세종종촌,세종  도움1로 108,30064,044-865-9099,09:30~22:00,N,Y,Y,N,Y,N,12681,OPEN,36.502515,127.248337
813,세종,세종테크밸리,"세종  남세종로 73, 1층 128, 129, 130호(집현동)",30141,044-865-8599,09:00~22:00,N,Y,Y,N,Y,N,13096,OPEN,36.4919938,127.32562
814,세종,조치원,세종  조치원읍 조치원로 32-2,30027,044-865-0707,09:00~22:00,N,Y,Y,N,N,Y,11575,OPEN,36.601625,127.299737
815,세종,조치원죽림,"세종특별자치시 조치원읍 세종로 2282 럭스스퀘어, 201호202호",30038,044-863-3939,09:00~22:00,N,Y,Y,N,N,N,13343,OPEN,36.591059,127.292111
816,세종,홈플러스세종,세종 금남면 세종로 세종특별자치시 어진동 307-3,339831,044-868-2253,10:00~22:00,N,Y,Y,N,N,N,12543,OPEN,36.509257,127.267342
817,강원,강릉,강원 강릉시 경강로 2106,210080,033-646-1199,09:00~23:00,N,Y,Y,N,Y,Y,11462,OPEN,37.7551,128.897277
818,강원,강릉교동,강원 강릉시 교동광장로 106,25515,033-645-3485,08:00~03:00,N,Y,Y,N,N,Y,11085,OPEN,37.764439,128.876039
819,강원,강릉내곡,강원 강릉시 범일로 663 롯데리아 강릉내곡,25603,033-647-1133,09:00~22:00,N,Y,Y,N,Y,N,13122,OPEN,37.745444,128.88463
820,강원,강릉입암,강원 강릉시 성덕포남로 46,210935,033-651-8850,09:00~22:00,N,Y,Y,N,Y,Y,12155,OPEN,37.759456,128.920022
821,강원,강릉주문진,강원 강릉시 주문진읍 주문리 323-6,210806,033-662-0231,09:00~22:00,N,Y,Y,N,N,N,12575,OPEN,37.890919,128.8263
822,강원,강릉터미널,강원 강릉시 하슬라로 15,210949,033-645-5133,09:00~20:00,N,Y,Y,N,Y,Y,11465,OPEN,37.754391,128.879586
823,강원,강릉포남,강원 강릉시 포남동 1291-5,210110,033-653-3111,09:00~22:00,N,Y,Y,N,Y,Y,12510,OPEN,37.771325,128.912205
824,강원,강원대학,강원 춘천시 서부대성로 231,200947,033-257-2455,09:00~22:00,N,Y,Y,N,N,Y,11470,OPEN,37.872808,127.744995
825,강원,고성간성,강원 고성군 간성읍 간성로 59-1,24736,033-681-8888,09:00~22:00,N,Y,Y,N,N,N,12685,OPEN,38.3792323,128.468235
826,강원,단구롯데시네마,"강원 원주시 서원대로 396 101호, 102호(단구동, 스타월드)",26484,033-761-7227,10:00~22:00,N,Y,Y,N,N,N,13089,OPEN,37.3308454,127.94871
827,강원,동해,강원 동해시 천곡로 74,240810,033-533-8060,09:00~22:00,N,Y,Y,N,N,Y,11484,OPEN,37.523038,129.113127
828,강원,동해쇄운,강원 동해시 청운1길 52,240190,033-522-4711,10:00~22:00,N,Y,Y,N,Y,N,12177,OPEN,37.485965,129.108909
829,강원,롯데속초리조트,강원 속초시 대포항길 186,24900,033-637-8591,10:00~22:00,N,Y,Y,N,Y,N,12811,CLOSING,38.1806088,128.613459
830,강원,문막,강원 원주시 문막읍 원문로 1587,220801,033-747-0901,09:00~22:00,N,Y,Y,N,Y,N,12109,OPEN,37.320627,127.833379
831,강원,삼척,강원 삼척시 진주로32,245936,033-576-0600,09:00~21:00,N,Y,Y,N,N,Y,11472,OPEN,37.44354,129.164174
832,강원,속초,강원 속초시 중앙로 128,217807,033-636-1133,09:00~22:00,N,Y,Y,N,N,N,11464,OPEN,38.202441,128.590057
833,강원,속초조양,"강원특별자치도 속초시 동해대로 4030 121,122호(조양동)",24872,033-633-2041,08:00~22:00,N,Y,Y,N,N,N,13329,OPEN,38.190152,128.593798
834,강원,양구,강원 양구군 양구읍 양록길 99,255802,033-482-7766,09:00~22:00,N,N,Y,N,N,Y,11474,OPEN,38.106611,127.989527
835,강원,양양,강원 양양군 양양읍 양양로 15-1,25031,033-671-4000,09:30~22:00,N,Y,Y,N,N,N,12986,OPEN,38.0779173,128.626404
836,강원,영월,강원 영월군 영월읍 중앙로 24,230881,033-374-1500,10:00~21:00,N,Y,Y,N,N,Y,11476,OPEN,37.183412,128.466512
837,강원,원주기업도시,"강원 원주시 지정면 신지정로 180,롯데프라자",26353,033-766-2100,10:00~22:00,N,Y,Y,N,N,N,12953,OPEN,37.3743049,127.876777
838,강원,원주단계,강원 원주시 천사로 63,220938,033-748-8444,24시간,Y,Y,Y,N,Y,Y,12161,OPEN,37.347714,127.932226
839,강원,원주단관,강원 원주시 단관길 125,26471,033-762-1188,09:00~22:00,N,Y,Y,N,N,N,12996,OPEN,37.3203502,127.959736
840,강원,원주무실,강원 원주시 시청로 86,220150,033-742-4880,09:00~22:00,N,Y,Y,N,Y,Y,11477,OPEN,37.336171,127.927835
841,강원,원주반곡,강원 원주시 반곡동 1878-8,220170,033-733-0444,09:00~22:00,N,Y,Y,N,N,Y,12540,OPEN,37.328178,127.975627
842,강원,원주봉산,강원 원주시 행구로 69,26331,033-733-2444,09:00~22:00,N,Y,Y,N,N,N,13039,CLOSING,37.3419236,127.964829
843,강원,원주우산,강원 원주시 우산로 72,220952,033-746-4672,09:00~23:00,N,Y,Y,N,Y,Y,11466,OPEN,37.369906,127.937127
844,강원,원주치악로,강원 원주 치악로 1971 롯데리아 치악로점,26325,033-745-6444,10:00~22:00,N,Y,Y,N,Y,N,13333,OPEN,37.356748,127.956349
845,강원,원주태장,강원 원주시 북원로 2680,220962,033-735-6655,10:00~22:00,N,Y,Y,N,Y,Y,12414,OPEN,37.38259,127.947343
846,강원,원주하나로,강원 원주시 무실로  178(단계동),220937,033-748-2111,10:00~22:00,N,Y,Y,N,Y,Y,11471,OPEN,37.341102,127.938856
847,강원,원주흥업,강원 원주시 흥업면 남원로 52-5,26403,033-766-7788,10:00~22:00,N,Y,Y,N,N,N,12843,OPEN,37.301825,127.920323
848,강원,원통,강원 인제군 북면 원통로147번길길 27,252824,033-461-4329,07:30~21:00,N,Y,Y,N,N,Y,11481,OPEN,38.122889,128.202875
849,강원,인제터미널,강원 인제군 인제읍 비봉로 43길,252807,033-461-4323,09:00~22:00,N,Y,Y,N,N,Y,12052,OPEN,38.065884,128.174894
850,강원,정선고한,강원 정선군 고한읍 고한로 45 1층(마이애미 정선호텔),26155,010-5447-7018,09:00~22:00,N,Y,Y,N,N,Y,13090,OPEN,37.2075545,128.844177
851,강원,철원동송,강원 철원군 동송읍 이평1리 679-2,269911,033-456-0221,08:00~24:00,N,Y,Y,N,N,Y,11297,OPEN,38.209144,127.217292
852,강원,철원와수,강원 철원군 서면 와수로 186,269845,033-458-6413,09:00~21:00,N,Y,Y,N,N,N,12167,OPEN,38.239773,127.439429
853,강원,춘천명동,강원 춘천시 명동길 명동길 5,24353,033-251-5258,09:00~22:00,N,Y,Y,N,N,Y,11463,OPEN,37.879719,127.727802
854,강원,춘천온의,강원특별자치도 춘천시 방송길 94-7 방송길 94-7,24364,033-244-5258,10:00~22:00,N,Y,Y,N,Y,Y,13158,OPEN,37.8677334,127.719308
855,강원,춘천우두,강원 춘천시 충열로 39,24226,033-241-5258,09:00~22:00,N,Y,Y,N,Y,Y,12663,OPEN,37.899581,127.732399
856,강원,춘천장학,강원 춘천시 동면 춘천순환로 600,24209,033-257-5258,09:00~21:30,N,Y,Y,N,Y,N,12847,OPEN,37.892334,127.75725
857,강원,태백,강원 태백시 태백로 898,26011,033-552-0056,09:00~21:00,N,N,Y,N,N,Y,11485,OPEN,37.175225,128.989334
858,강원,평창진부,강원 평창군 진부면 진부중앙로 71,25325,033-335-0119,10:00~21:30,N,N,Y,N,N,Y,12936,OPEN,37.638331,128.55926
859,강원,하나로마트춘천퇴계,강원 춘천시 지석로 11,24413,033-255-5258,10:00~22:00,N,Y,Y,N,Y,Y,13053,OPEN,37.8539901,127.737491
860,강원,홍천,강원 홍천군 홍천읍 신장대리 79-71,250805,033-433-5425,10:00~22:00,N,Y,Y,N,N,Y,11468,OPEN,37.690899,127.884558
861,강원,화천,강원 화천군 화천읍 중앙로 16,24127,033-441-8121,09:00~21:00,N,Y,Y,N,N,Y,11971,OPEN,38.104291,127.705765
862,강원,화천사내,강원 화천군 사내면 사내로 33,209834,033-442-4001,10:00~19:30,N,N,Y,N,N,Y,12377,CLOSING,38.070933,127.521202
863,강원,횡성,강원 횡성군 횡성읍 문정로 25,225808,033-343-0888,10:00~22:00,N,Y,Y,N,N,Y,11475,OPEN,37.489747,127.985538
864,충북,광혜원,충북 진천군 광혜원면 장기길 104,365832,043-533-0020,09:00~22:00,N,Y,Y,N,N,N,12101,OPEN,36.9901193,127.445432
865,충북,괴산,충북 괴산군 괴산읍 괴강로 4,367805,043-832-1050,09:00~22:00,N,N,Y,N,N,N,12170,OPEN,36.8089756,127.794971
866,충북,금왕,충북 음성군 금왕읍 무극로 250,369805,043-881-5555,09:00~22:00,N,Y,Y,N,Y,Y,11547,OPEN,36.992682,127.593077
867,충북,단양,충북 단양군 단양읍 삼봉로 315,395804,043-421-1855,09:00~21:00,N,Y,Y,N,N,Y,12001,OPEN,36.984976,128.369159
868,충북,대소,충북 음성군 대소면 오산리 120-33,369824,043-881-7877,09:00~22:00,N,Y,Y,N,N,Y,12400,OPEN,36.968322,127.484389
869,충북,롯데마트제천,충북 제천시 용두대로 111 롯데마트제천점 내,390240,043-642-2788,10:00~21:30,N,Y,Y,N,Y,Y,12018,OPEN,37.140117,128.20078
870,충북,롯데마트충주,충북 충주시 봉계1길 49 롯데마트 2층,27360,043-845-0256,10:00~22:00,N,Y,Y,N,N,N,13290,OPEN,36.9817606,127.91459
871,충북,롯데아울렛청주,충북 청주시 흥덕구 2순환로 1004,361825,043-232-1000,10:30~21:00,N,N,Y,N,Y,Y,12249,OPEN,36.6451218,127.42157
872,충북,보은,충북 보은군 보은읍 보은로 95,376807,043-542-8222,09:00~22:00,N,Y,Y,N,N,Y,11504,OPEN,36.48266,127.718222
873,충북,서원대,충북 청주시 흥덕구 모충동 134-27,361806,043-287-8601,09:00~02:00,N,Y,Y,N,Y,N,12472,OPEN,36.622378,127.484945
874,충북,서충주신도시,충북 충주시 중앙탑면 기업도시로 222,27465,043-852-8899,09:00~22:00,N,Y,Y,N,Y,Y,12860,OPEN,37.0166234,127.824486
875,충북,오창,충북 청주시 청원구 오창읍 중심상업로 7,28120,043-216-0100,09:00~22:00,N,Y,Y,N,Y,Y,11571,OPEN,36.711402,127.428656
876,충북,오창2산단,충북 청주시 청원구 오창읍 주성1길 5,28117,043-211-7450,10:00~22:00,N,Y,Y,N,N,N,12682,OPEN,36.731774,127.451953
877,충북,옥천,충북 옥천군 옥천읍 중앙로 45,373806,043-731-3808,09:00~22:00,N,Y,Y,N,N,Y,11522,OPEN,36.301357,127.568905
878,충북,음성,충북 음성군 음성읍 수정로 53,369807,043-873-5600,09:00~22:00,N,Y,Y,N,N,Y,11565,OPEN,36.934793,127.692905
879,충북,음성삼성,충북 음성군 삼성면 덕정로30번길 7-2,27652,043-881-2468,10:00~22:00,N,Y,Y,N,Y,Y,12855,CLOSING,37.0180776,127.496026
880,충북,제천,충북 제천시 풍양로 13길 5,390011,043-646-5577,08:00~21:00,N,Y,Y,N,N,Y,11494,OPEN,37.137836,128.210932
881,충북,제천강저,충북 제천시 강저로 226,27205,043-644-3330,09:00~22:00,N,Y,Y,N,Y,N,12912,OPEN,37.121891,128.202815
882,충북,제천청전,충북 제천시 청전동 청전대로169,390897,043-646-2484,09:00~22:00,N,Y,Y,N,N,Y,11561,OPEN,37.151995,128.216129
883,충북,증평,충북 증평군 증평읍 중앙로 215-1,368905,043-836-2255,09:00~22:00,N,Y,Y,N,N,Y,11515,OPEN,36.784834,127.582008
884,충북,진천,충북 진천군 진천읍 중앙동로 56,365808,043-534-9955,09:00~22:00,N,Y,Y,N,N,Y,11533,OPEN,36.854762,127.444787
885,충북,청주가경,충북 청주시 흥덕구 가경동 2270 141.142.143,28382,043-235-2253,10:00~22:30,N,Y,Y,N,N,N,13266,OPEN,36.6174863,127.428585
886,충북,청주강내,충북 청주시 흥덕구 강내면 태성탑연로 1층,28172,043-235-2399,09:00~22:00,N,Y,Y,N,Y,N,12614,OPEN,36.622866,127.358211
887,충북,청주개신,충북 청주시 서원구 경신로 경신로 31-1,28608,043-234-3092,09:00~23:00,N,Y,Y,N,N,N,11521,OPEN,36.620624,127.445371
888,충북,청주금천,충북 청주시 상당구 수영로 285 튼튼타워 103호,28744,043-286-9500,08:30~02:00,N,Y,Y,N,N,N,13270,OPEN,36.6300448,127.505509
889,충북,청주남문성안길,충북 청주시 상당구 성안로 51,28530,043-222-7406,09:00~22:00,N,Y,Y,N,N,N,12997,OPEN,36.6322566,127.489389
890,충북,청주내수,충북 청주시 청원구 내수읍 마산2길 49,28145,043-218-3456,09:00~22:00,N,Y,Y,N,N,N,12667,OPEN,36.722862,127.536359
891,충북,청주대학,충북 청주시 청원구 상당로 255,28536,043-222-5989,09:00~23:00,N,Y,Y,N,Y,Y,11540,OPEN,36.651137,127.488705
892,충북,청주동남,충북 청주시 상당구 중고개로 141번길 13-16,28760,043-295-5686,09:00~22:00,N,Y,Y,N,Y,N,13033,OPEN,36.6158642,127.517411
893,충북,청주봉명,충북 청주시 흥덕구 백봉로227 이화빌딩 105호,361856,043-265-0102,09:00~24:00,N,Y,Y,N,Y,N,11599,OPEN,36.649551,127.460762
894,충북,청주분평,충북 청주시 흥덕구 월평로 4,361822,043-296-3800,09:00~23:00,N,Y,Y,N,Y,Y,11530,OPEN,36.611007,127.485201
895,충북,청주사창,충북 청주시 흥덕구 내수동로116(사창동),361833,043-272-0388,09:00~03:00,N,Y,Y,N,Y,Y,11529,OPEN,36.633682,127.460054
896,충북,청주사천,충북 청주시 청원구 사뜸로 롯데리아,28348,043-218-2323,09:00~22:30,N,Y,Y,N,N,Y,11536,OPEN,36.666449,127.481036
897,충북,청주산남,충북 청주시 서원구 산남로70번길 1층,28625,043-291-0660,09:00~23:00,N,Y,Y,N,N,Y,11582,OPEN,36.611312,127.465978
898,충북,청주옥산,충북 청주시 흥덕구 옥산면 청주역로 629,28113,043-277-5288,09:00~23:00,N,Y,Y,N,Y,Y,12815,OPEN,36.663649,127.375587
899,충북,청주용암,충북 청주시 상당구 월평로 172,360823,043-294-8661,09:00~24:00,N,Y,Y,N,N,N,11519,OPEN,36.610548,127.503569
900,충북,청주율량,충북 청주시 청원구 율봉로 197 102.103호(율량동875-6),28327,043-212-2626,09:30~22:00,N,Y,Y,N,N,Y,11525,OPEN,36.668824,127.490931
901,충북,청주율량2지구,충청북도 청주시 창원구 주성로 269 105호 (주성동),28318,043-287-7275,09:00~23:00,N,Y,Y,N,Y,Y,12548,OPEN,36.6707239,127.49631
902,충북,청주지웰,충북 청주시 흥덕구 복대동 288-115 1층,361270,043-238-1690,09:00~23:00,N,Y,Y,N,Y,Y,12562,OPEN,36.641567,127.427903
903,충북,청주터미널,충북 청주시 흥덕구 가경동 1449번지 터미날타워 10호동,361802,043-235-9100,09:00~22:00,N,N,Y,N,Y,Y,12000,OPEN,36.6257883,127.432857
904,충북,청주테크노폴리스,충청북도 청주시 흥덕구 송화로 172-1,28292,043-268-7085,09:00~22:00,N,Y,Y,N,Y,Y,12946,OPEN,36.666998,127.451969
905,충북,청주하나로,충북 청주시 상당구 무농정로 32 청주하나로클럽內,360183,043-285-8661,09:00~21:30,N,Y,Y,N,Y,N,12095,OPEN,36.604805,127.506879
906,충북,청주하복대,충북 청주시 흥덕구 진재로 56,361815,043-231-1690,09:00~24:00,N,Y,Y,N,N,Y,11541,OPEN,36.636048,127.429701
907,충북,충북영동,충북 영동군 영동읍 중앙로 22-1,370809,043-745-3333,08:00~22:00,N,Y,Y,N,N,Y,11517,OPEN,36.174328,127.776201
908,충북,충북오송,충북 청주시 흥덕구 오송읍 오송생명로 194,28166,043-236-1658,10:00~22:00,N,Y,Y,N,Y,Y,12070,OPEN,36.6308,127.330457
909,충북,충북오송2지구,"충북 청주시 흥덕구 오송읍 봉산리 994 스카이빌딩 101,102,103호",28222,043-234-9923,09:00~22:00,N,Y,Y,N,N,N,13162,OPEN,36.6191793,127.316069
910,충북,충북혁신도시,충청북도 음성군 맹동면 대하1길 4 1층,27738,043-878-7987,09:00~22:00,N,Y,Y,N,Y,Y,12786,OPEN,36.907774,127.540922
911,충북,충주,충북 충주시 예성로151,380020,043-844-9165,10:00~22:00,N,Y,Y,N,N,N,11495,OPEN,36.97043,127.933154
912,충북,충주연수,충북 충주시 계명대로 238,380100,043-855-1588,09:00~23:00,N,Y,Y,N,N,Y,12143,OPEN,36.982261,127.941045
913,충북,충주용산,"충북 충주시 남산로 73, 1층",27398,043-857-0999,09:00~23:00,N,Y,Y,N,Y,Y,12747,OPEN,36.961843,127.940261
914,충북,충주칠금,충북 충주시 칠금12길 5,380965,043-842-0586,09:00~23:10,N,Y,Y,N,Y,N,11534,OPEN,36.986705,127.92344
915,충북,충주터미널,충북 충주시 봉계1길 49 공용터미널1층,380965,043-847-6072,08:00~22:00,N,Y,Y,N,Y,Y,11588,CLOSING,36.981763,127.914602
916,충북,충주호암,"충북 충주시 호암토성2로 상가동 지하1층 B-108호,109호",27480,043-848-7999,09:30~23:00,N,Y,Y,N,N,Y,12998,CLOSING,36.9559023,127.932919
917,충북,홈플러스오창,충북 청주시 청원구 오창읍 중심상업1로 8-11 롯데리아,28120,043-241-0100,10:00~20:30,N,Y,Y,N,Y,Y,11593,OPEN,36.712666,127.42815
918,충북,NC청주,충북 청주시 흥덕구 2순환로 1233(가경동),361849,043-234-0111,10:30~21:00,N,Y,Y,N,Y,Y,11562,OPEN,36.626178,127.431236
919,충남,계룡,충남 계룡시 엄사면 엄사리 번영로 36번지,321931,042-841-0125,09:00~22:00,N,Y,Y,N,N,N,11526,CLOSING,36.288866,127.241309
920,충남,계룡대실지구,"충남 계룡시 두마면 대실남북3길 7 106,107호",32844,042-840-9990,09:00~22:00,N,Y,Y,N,N,N,13160,OPEN,36.2666015,127.259607
921,충남,공주,충남 공주시 웅진로 150,314050,041-856-0560,09:00~22:00,N,Y,Y,N,N,Y,11501,OPEN,36.453659,127.124572
922,충남,공주신관,충남 공주시 흑수골길 34,314110,041-856-7708,09:00~24:00,N,Y,Y,N,Y,Y,11537,OPEN,36.473026,127.140904
923,충남,금산,충남 금산군 금산읍 인삼로 71(앤이씨티 101호),312802,041-754-7012,09:00~23:00,N,Y,Y,N,N,Y,11518,OPEN,36.103236,127.489675
924,충남,논산,충남 논산시 중앙로398번길 13-11,32974,041-735-5311,09:00~22:00,N,Y,Y,N,N,Y,11505,OPEN,36.201058,127.089554
925,충남,논산내동,충남 논산시 중앙로 255,32983,041-733-0020,09:00~23:00,N,Y,Y,N,N,N,13022,OPEN,36.1898693,127.099084
